,BuildingType,PrimaryPropertyType,PropertyName,CouncilDistrictCode,Neighborhood,YearBuilt,NumberofBuildings,NumberofFloors,PropertyGFAParking,PropertyGFABuilding(s),ListOfAllPropertyUseTypes,LargestPropertyUseType,LargestPropertyUseTypeGFA,ENERGYSTARScore,Latitude,Longitude,TotalGHGEmissions,SiteEnergyUse(kBtu)
0,NonResidential,Hotel,MAYFLOWER PARK HOTEL,7,downtown,1927,1.0,12.0,0,88434,Hotel,Hotel,88434.0,65.0,47.61219025,-122.33799744,249.43,6981428.0
1,NonResidential,Hotel,PARAMOUNT HOTEL,7,downtown,1996,1.0,11.0,15064,88502,"Hotel, Parking, Restaurant",Hotel,83880.0,51.0,47.61310583,-122.33335756,263.51,8354235.0
4,NonResidential,Hotel,WARWICK SEATTLE HOTEL,7,downtown,1980,1.0,18.0,12460,107430,"Hotel, Parking, Swimming Pool",Hotel,123445.0,67.0,47.6137544,-122.34092379999998,507.7,14829099.0
5,Nonresidential COS,Other,WEST PRECINCT (SEATTLE POLICE),7,downtown,1999,1.0,2.0,37198,60090,Police Station,Police Station,88830.0,,47.6164389,-122.33676431,304.62,12051984.0
6,NonResidential,Hotel,CAMLIN WORLDMARK HOTEL,7,downtown,1926,1.0,11.0,0,83008,Hotel,Hotel,81352.0,25.0,47.6141141,-122.33274086,208.46,6252842.0
7,NonResidential,Other,PARAMOUNT THEATER,7,downtown,1926,1.0,8.0,0,102761,Other - Entertainment/Public Assembly,Other - Entertainment/Public Assembly,102761.0,,47.61290234,-122.33130949,199.99,6426022.0
8,NonResidential,Hotel,COURTYARD BY MARRIOTT - ALASKA BLDG SEATTLE,7,downtown,1904,1.0,15.0,0,163984,Hotel,Hotel,163984.0,46.0,47.60258934,-122.33255325,331.61,12633744.0
9,Multifamily MR (5-9),Mid-Rise Multifamily,LYON BUILDING,7,downtown,1910,1.0,6.0,1496,62216,Multifamily Housing,Multifamily Housing,56132.0,2.0,47.60278416,-122.33214887,170.0,4587231.0
10,NonResidential,Hotel,HOTEL MONACO,7,downtown,1969,1.0,11.0,19279,133884,,,,48.0,47.60712147,-122.33431932,576.63,14719853.0
11,NonResidential,Hotel,W SEATTLE HOTEL,7,downtown,1998,1.0,25.0,61161,272015,Hotel,Hotel,336640.0,32.0,47.60718204,-122.33347215,723.4,27717026.0
12,NonResidential,Hotel,EXECUTIVE PACIFIC PLAZA,7,downtown,1928,1.0,9.0,0,65009,Hotel,Hotel,65009.0,39.0,47.60709939,-122.33310536,334.87,6807227.0
13,NonResidential,Hotel,CROWNE PLAZA,7,downtown,1980,1.0,33.0,57600,258352,"Hotel, Parking",Hotel,295511.0,56.0,47.60809326,-122.33211517,675.34,22811690.0
14,NonResidential,Hotel,HOTEL VINTAGE PARK,7,downtown,1922,1.0,11.0,0,67390,,,,14.0,47.60761642,-122.3323288,486.25,10711451.0
15,Nonresidential COS,Other,SEATTLE CENTRAL LIBRARY,7,downtown,2004,1.0,11.0,57000,355000,"Data Center, Library, Parking",Library,364913.0,,47.60667501,-122.33226425,166.84,16849234.0
16,NonResidential,Other,DOWNTOWN SEATTLE YMCA,7,downtown,1930,1.0,6.0,0,103911,"Fitness Center/Health Club/Gym, Office, Swimming Pool",Fitness Center/Health Club/Gym,90000.0,,47.60544586,-122.33280182,411.09,10340282.0
17,NonResidential,Hotel,RENAISSANCE MADISON HOTEL,7,downtown,1983,1.0,28.0,85000,331281,"Hotel, Parking",Hotel,348329.0,30.0,47.60656003,-122.33063632,755.12,33270518.0
18,NonResidential,Mixed Use Property,RAINIER CLUB (HISTORICAL LANDMARK),7,downtown,1907,1.0,5.0,0,57452,"Office, Other, Other - Lodging/Residential, Restaurant, Social/Meeting Hall",Social/Meeting Hall,16442.0,,47.60552597,-122.33163032,265.5,7481768.0
19,NonResidential,Hotel,DOUBLE TREE ARCTIC CLUB HOTEL - SEATTLE,7,downtown,1916,1.0,10.0,0,104352,,,,83.0,47.60397899,-122.33205759999998,411.22,7845112.0
22,SPS-District K-12,K-12 School,GRAHAM HILL ELEMENTARY SCHOOL (SPS-DISTRICT),2,southeast,1961,1.0,2.0,0,56228,K-12 School,K-12 School,58320.0,96.0,47.54570136,-122.26858429999999,35.17,1454222.0
23,NonResidential,Hotel,WATERTOWN HOTEL,4,northeast,2001,1.0,6.0,30586,58006,"Hotel, Parking",Hotel,58006.0,85.0,47.65953281,-122.31739250000001,102.08,3880806.0
24,NonResidential,College/University,Cornish (Main Campus Center),7,downtown,1928,1.0,7.0,0,126593,College/University,College/University,125000.0,,47.61839333,-122.33692920000001,308.6,9791557.0
25,NonResidential,Other,SEATTLE HONDA,7,downtown,1930,1.0,2.0,0,67224,Automobile Dealership,Automobile Dealership,67224.0,,47.61490582,-122.33040102,9.68,1388717.0
26,NonResidential,Hotel,HOMEWOOD SUITES -SEATTLE - Hilton,7,east,1991,1.0,8.0,30301,128375,"Hotel, Parking, Retail Store, Swimming Pool",Hotel,112676.0,,47.61300278,-122.32923126,249.43,5159342.0
27,NonResidential,Hotel,SPRINGHILL SUITES SEATTLE DOWNTOWN,7,downtown,2001,1.0,10.0,38281,133585,Hotel,Hotel,128909.0,20.0,47.61806905,-122.33005445,319.73,11026945.0
28,SPS-District K-12,K-12 School,MEANY MIDDLE SCHOOL (SPS-DISTRICT),3,central,1955,1.0,1.0,0,126351,K-12 School,K-12 School,126351.0,57.0,47.62309371,-122.30538870000001,244.51,6283226.0
29,NonResidential,Hotel,Hotel Five,7,downtown,1978,1.0,5.0,16200,52210,Hotel,Hotel,47994.0,60.0,47.61587049,-122.34197968,125.57,4341706.0
30,SPS-District K-12,K-12 School,JANE ADAMS JUNIOR HIGH (SPS-DISTRICT),5,north,1949,1.0,2.0,0,160645,K-12 School,K-12 School,164229.0,80.0,47.71011498,-122.29379175,260.37,6387710.0
31,SPS-District K-12,K-12 School,JOHN HAY ELEMENTARY SCHOOL (SPS-DISTRICT),7,magnolia / queen anne,1989,1.0,2.0,0,51582,K-12 School,K-12 School,55166.0,94.0,47.63303191,-122.35245717,10.27,1472548.0
32,NonResidential,Small- and Mid-Sized Office,HOUSE OF GOOD SHEPHERD,4,lake union,1906,1.0,3.0,0,87262,"K-12 School, Multifamily Housing, Office, Other - Entertainment/Public Assembly",Office,40943.0,,47.66391557,-122.33172174,149.39,3988729.0
33,NonResidential,Hotel,SILVER CLOUD INN UNIVERSITY,4,northeast,1994,1.0,4.0,0,81871,Hotel,Hotel,81871.0,20.0,47.66585193,-122.29889419,243.37,7419765.0
34,NonResidential,"Self-Storage Facility
",QFC / SHURGARD MINI STORAGE / LIQUOR STORE,4,northeast,1955,1.0,2.0,0,126394,Self-Storage Facility,Self-Storage Facility,26225.0,77.0,47.66270326,-122.29612323,3.71,306721.0
35,NonResidential,Distribution Center,SEATTLE WAREHOUSE OFFICE BUILDING,2,greater duwamish,1961,7.0,2.0,0,714095,,,,1.0,47.5106034,-122.29027588,333.54,47843892.0
36,SPS-District K-12,K-12 School,LAWTON ELEMENTARY SCHOOL (SPS-DISTRICT),7,magnolia / queen anne,1990,1.0,2.0,0,54986,K-12 School,K-12 School,54986.0,91.0,47.65726207,-122.39065097,28.78,1655612.0
37,SPS-District K-12,K-12 School,ECKSTEIN MIDDLE (SPS-DISTRICT),4,northeast,1950,1.0,2.0,0,175565,K-12 School,K-12 School,182861.0,88.0,47.68245037,-122.29393540000001,258.67,6227419.0
38,NonResidential,Small- and Mid-Sized Office,SALMON BAY CENTER 5305 & 5309,6,ballard,1961,1.0,2.0,0,94900,"Non-Refrigerated Warehouse, Office",Office,55586.0,57.0,47.66580963,-122.3860321,123.08,6043853.0
39,NonResidential,Small- and Mid-Sized Office,EL CENTRO DE LA RAZA,2,greater duwamish,1900,1.0,2.0,0,52554,"Office, Other - Education",Office,51029.0,93.0,47.58002948,-122.31181286,56.97,2137686.0
40,NonResidential,K-12 School,BLANCHET HIGH SCHOOL,6,northwest,1954,1.0,3.0,0,175015,K-12 School,K-12 School,175015.0,95.0,47.68894837,-122.33616192,251.72,7080118.0
41,NonResidential,"Self-Storage Facility
",MINI STG (OLD SKYWAY LUGGAGE CO),7,downtown,1911,1.0,3.0,0,70586,"Office, Self-Storage Facility, Vocational School",Self-Storage Facility,38439.0,,47.61311034,-122.35096928,39.87,2147062.0
42,NonResidential,Hotel,HILTON SEATTLE,7,downtown,1969,1.0,24.0,205970,126240,Hotel,Hotel,348630.0,68.0,47.60950466,-122.33340290000001,263.85,15660628.0
43,NonResidential,Large Office,5th and Pine,7,downtown,1973,1.0,5.0,0,168115,"Data Center, Office, Retail Store",Office,103501.0,79.0,47.61103976,-122.33634840000002,64.23,9213841.0
44,NonResidential,Retail Store,CENTURY SQUARE RETAIL,7,downtown,1920,1.0,2.0,0,57428,"Non-Refrigerated Warehouse, Other, Retail Store",Retail Store,34617.0,,47.61076355,-122.337677,0.0,0.0
45,NonResidential,Small- and Mid-Sized Office,GIBRALTAR TOWER,7,downtown,1910,1.0,8.0,0,59400,"Office, Retail Store",Office,34947.0,,47.610465999999995,-122.33795929,27.3,3915947.0
46,NonResidential,Mixed Use Property,MANN BUILDING/WILD GINGER/TRIPLE DOOR,7,downtown,1926,1.0,2.0,0,52549,"Office, Other - Entertainment/Public Assembly, Restaurant",Other - Entertainment/Public Assembly,23500.0,,47.60883331,-122.3374176,583.41,15583947.0
47,Multifamily LR (1-4),Low-Rise Multifamily,GATEWOOD APTS,7,downtown,1900,1.0,4.0,0,48383,"Multifamily Housing, Retail Store",Multifamily Housing,38172.0,75.0,47.60973588,-122.34038419999999,112.06,2953338.0
48,NonResidential,Hotel,ROOSEVELT HOTEL,7,downtown,1930,1.0,20.0,10043,88591,"Hotel, Parking, Restaurant",Hotel,83591.0,46.0,47.61229324,-122.33441925,77.8,6175812.0
50,NonResidential,Hotel,INN AT THE MARKET,7,downtown,1985,1.0,7.0,0,71150,"Hotel, Parking, Restaurant, Retail Store",Hotel,41340.0,99.0,47.60989093,-122.34142549999999,126.83,5040382.0
51,NonResidential,Hotel,MOORE HOTEL & THEATRE,7,downtown,1908,1.0,7.0,0,122810,"Hotel, Other - Entertainment/Public Assembly, Retail Store",Hotel,88360.0,99.0,47.61155254,-122.3408486,209.92,5086863.0
52,NonResidential,Hotel,QUALITY INN & SUITES - SEATTLE,7,lake union,1959,1.0,5.0,42546,70627,,,,86.0,47.62037281,-122.34414650000001,120.73,4988241.0
53,NonResidential,Hotel,HOLIDAY INN - SEATTLE,7,lake union,2000,1.0,7.0,34735,115718,"Hotel, Restaurant",Hotel,107547.0,83.0,47.620311799999996,-122.3428044,191.58,6722886.0
54,NonResidential,Hotel,HOLIDAY INN EXPRESS - DOWNTOWN SEATTLE,7,lake union,1997,1.0,6.0,28200,88100,"Hotel, Parking",Hotel,88490.0,84.0,47.62021696,-122.3432115,170.01,6014078.0
55,NonResidential,Hotel,HOMEWOOD SUITES HOTEL - SEATTLE,7,magnolia / queen anne,1998,1.0,6.0,36744,118858,Hotel,Hotel,155602.0,81.0,47.62050588,-122.35969009999998,156.59,6915293.0
56,NonResidential,K-12 School,SEATTLE HEBREW ACADAMY,3,east,1911,1.0,3.0,0,56072,K-12 School,K-12 School,56072.0,77.0,47.63445532,-122.30801629999999,139.62,3106930.0
57,NonResidential,Hotel,COMFORT SUITES SEATTLE CENTER,7,magnolia / queen anne,1999,1.0,4.0,44891,78051,"Hotel, Parking",Hotel,78051.0,94.0,47.62498256,-122.3445605,169.49,5276777.0
58,NonResidential,Small- and Mid-Sized Office,WA DEPT OF SOCIAL & HEALTH SERVICES,3,central,1962,1.0,2.0,0,54984,Office,Office,54984.0,65.0,47.60841187,-122.30954409999998,85.51,3504957.0
60,NonResidential,Senior Care Community,FOSS HOME AND VILLAGE,5,northwest,1970,1.0,2.0,0,93397,Senior Care Community,Senior Care Community,93397.0,1.0,47.72389349,-122.35629979999999,602.0,16371764.0
61,NonResidential,Hotel,SCCA - ALLIANCE HOUSE,7,lake union,2008,1.0,6.0,20732,63371,"Hotel, Parking",Hotel,63371.0,68.0,47.61990903,-122.3320457,74.04,3979132.0
63,NonResidential,Medical Office,"POLYCLINIC MEDICAL OFFICE, NORTH BUILDING",3,east,1965,1.0,3.0,0,179014,Medical Office,Medical Office,179014.0,48.0,47.61249662,-122.3213373,563.78,18868768.0
64,NonResidential,Hotel,SORRENTO HOTEL,3,east,1908,1.0,7.0,0,76631,Hotel,Hotel,76631.0,24.0,47.60895788,-122.3268374,255.64,7231928.0
65,NonResidential,Mixed Use Property,PUGET SOUND BLOOD CENTER,3,east,1983,1.0,6.0,18493,169107,"Data Center, Medical Office, Non-Refrigerated Warehouse, Office, Other, Parking",Medical Office,40174.0,,47.60831445,-122.32661920000001,444.42,15240688.0
66,NonResidential,Retail Store,FIRESTONE TIRE AND RUBBER CO,7,lake union,1929,1.0,2.0,0,58320,Retail Store,Retail Store,72072.0,95.0,47.622375,-122.33805,39.69,1074180.0
67,NonResidential,Large Office,CITY PLACE III,7,lake union,2010,1.0,5.0,0,316306,"Office, Other, Parking, Retail Store",Office,261826.0,96.0,47.62428336,-122.33589247,131.03,13300859.0
68,NonResidential,Hotel,MARRIOTT RESIDENCE INN,3,lake union,1990,1.0,7.0,44766,238097,"Hotel, Parking",Hotel,235788.0,40.0,47.6263594,-122.33313100000001,509.18,18829136.0
69,Nonresidential COS,Other,KEY ARENA - SEATTLE CENTER,7,magnolia / queen anne,1962,1.0,1.0,0,129000,Other,Other,368000.0,,47.62124083,-122.35343219999999,760.51,29337400.0
70,Nonresidential COS,Other,BAGLEY WRIGHT THEATER - SEATTLE CENTER,7,magnolia / queen anne,1962,1.0,1.0,0,91213,Other,Other,65000.0,,47.62124083,-122.35343219999999,123.28,5069854.0
71,Nonresidential COS,Other,ARMORY - SEATTLE CENTER,7,magnolia / queen anne,1938,1.0,5.0,0,396085,Other,Other,278500.0,,47.62189039,-122.35027520000001,900.81,27185096.0
72,NonResidential,Large Office,CITY PLACE IV,7,lake union,2010,1.0,12.0,0,571329,"Office, Other, Parking",Office,598801.0,89.0,47.62099765,-122.33592466,636.96,41734776.0
73,Nonresidential COS,Other,EXHIBITION HALL - SEATTLE CENTER,7,magnolia / queen anne,1962,1.0,2.0,0,49680,Other,Other,52000.0,,47.62393635,-122.35193000000001,96.39,2632472.0
74,Nonresidential COS,Other,MERCER ARENA - SEATTLE CENTER,7,magnolia / queen anne,1928,1.0,1.0,0,60696,Other,Other,108000.0,,47.62388082,-122.3499699,6.45,924980.0
75,Nonresidential COS,Other,MCCAW HALL - SEATTLE CENTER,7,magnolia / queen anne,1928,1.0,2.0,0,262048,Other,Other,296000.0,,47.62388082,-122.3499699,398.51,20828130.0
76,NonResidential,Small- and Mid-Sized Office,KCTS 9,7,magnolia / queen anne,1986,1.0,2.0,2352,63888,"Data Center, Distribution Center, Office, Parking, Retail Store",Office,45900.0,,47.623925,-122.34834170000002,30.19,4329966.0
77,NonResidential,Large Office,BILL & MELINDA GATES FOUNDATION,7,magnolia / queen anne,2010,1.0,6.0,303707,616891,"Office, Other, Parking",Office,729584.0,93.0,47.62334946,-122.344706,634.03,36681188.0
78,NonResidential,Small- and Mid-Sized Office,SCRIPPS BUILDING - 221 FIRST AVENUE WEST,7,magnolia / queen anne,1970,1.0,4.0,25930,50283,"Office, Other, Parking",Office,48546.0,72.0,47.62038448,-122.35842690000001,45.83,3303553.0
79,NonResidential,Hotel,THE MEDITERRANEAN INN,7,magnolia / queen anne,2002,1.0,6.0,36934,80804,"Hotel, Parking",Hotel,59976.0,52.0,47.62294488,-122.3571048,138.68,5061274.0
80,NonResidential,Hotel,UNIVERSITY INN,4,northeast,1962,1.0,4.0,0,50017,"Hotel, Swimming Pool",Hotel,50017.0,51.0,47.65774638,-122.3175345,196.34,5570472.0
81,SPS-District K-12,K-12 School,COOPER ELEMENTARY SCHOOL (SPS-DISTRICT),1,delridge,1999,1.0,3.0,0,74468,K-12 School,K-12 School,74768.0,85.0,47.56261299,-122.35792830000001,25.2,1857329.0
82,NonResidential,K-12 School,ST JOSEPH K-8 SCHOOL,3,east,1923,1.0,3.0,0,67743,K-12 School,K-12 School,67743.0,43.0,47.6262348,-122.3081985,63.95,2303288.0
83,NonResidential,K-12 School,HOLY NAMES ACADEMY,3,east,1908,1.0,6.0,0,194104,K-12 School,K-12 School,194104.0,100.0,47.62595722,-122.30416399999999,229.98,5889882.0
84,NonResidential,Small- and Mid-Sized Office,THE 2100 BUILDING,3,southeast,2003,1.0,3.0,35752,63681,"Office, Parking",Office,63681.0,71.0,47.58406769,-122.30127069999999,30.95,4439034.0
85,SPS-District K-12,K-12 School,MUIR ELEMENTARY SCHOOL(SPS-DISTRICT),2,southeast,1991,1.0,2.0,0,58933,K-12 School,K-12 School,60725.0,71.0,47.57334571,-122.2906221,14.99,2150120.0
86,SPS-District K-12,K-12 School,MERCER JR HIGH SCHOOL (SPS-DISTRICT),2,greater duwamish,1957,1.0,1.0,0,130862,K-12 School,K-12 School,132060.0,65.0,47.56301254,-122.3112112,211.49,5851209.0
87,SPS-District K-12,K-12 School,ORCA AT WHITWORTH ELEMENTARY SCHOOL (SPS-DISTRICT),2,southeast,1989,1.0,3.0,0,59955,K-12 School,K-12 School,59955.0,94.0,47.55446464,-122.2764003,15.1,1521329.0
88,SPS-District K-12,K-12 School,MCCLURE MIDDLE (SPS-DISTRICT),7,magnolia / queen anne,1964,1.0,2.0,0,93218,K-12 School,K-12 School,93218.0,84.0,47.6367344,-122.35894520000001,97.38,3072599.0
89,NonResidential,Other,CENTURYLINK: LAKEVIEW MAIN,4,northeast,1941,1.0,4.0,0,56521,Other,Other,49000.0,,47.67530479999999,-122.31534199999999,44.92,6443260.0
90,NonResidential,Other,ROOSEVELT SQUARE,4,northeast,1929,1.0,2.0,0,206934,"Other, Parking",Other,119146.0,,47.6756688,-122.3161909,139.24,4461969.0
91,NonResidential,Hotel,HOLIDAY INN EXPRESS - SEATTLE NORTH,5,northwest,2001,1.0,4.0,0,51390,"Hotel, Parking",Hotel,51390.0,86.0,47.73127184,-122.3462382,138.87,3864699.0
92,SPS-District K-12,K-12 School,BROADVIEW THOMSON ELEMENTARY (SPS-DISTRICT),5,northwest,1963,1.0,2.0,0,131013,K-12 School,K-12 School,131909.0,88.0,47.72465187,-122.3539331,127.52,3939221.0
93,SPS-District K-12,K-12 School,INGRAHAM HIGH (SPS-DISTRICT),5,northwest,1959,1.0,1.0,0,245587,K-12 School,K-12 School,245587.0,95.0,47.72595704,-122.33759479999999,377.09,10444297.0
94,NonResidential,Hotel,EXTENDED STAY AMERICA,5,northwest,2002,1.0,3.0,0,69138,Hotel,Hotel,70609.0,75.0,47.72527664,-122.34109740000001,88.4,3298570.0
95,SPS-District K-12,K-12 School,B F DAY ELEMENTARY (SPS-DISTRICT),6,lake union,1991,1.0,3.0,0,66588,K-12 School,K-12 School,66588.0,75.0,47.65474724,-122.3490987,14.17,2033074.0
96,NonResidential,Hotel,ALEXIS HOTEL,7,downtown,1904,1.0,5.0,0,190980,"Hotel, Parking",Hotel,190980.0,97.0,47.60477066,-122.33677673,150.23,6935723.0
97,Nonresidential COS,Other,BENAROYA HALL,7,downtown,1998,1.0,6.0,0,284100,Other - Entertainment/Public Assembly,Other - Entertainment/Public Assembly,189750.0,,47.60810553,-122.3369663,338.23,14169301.0
99,SPS-District K-12,K-12 School,WEST WOODLAND PARK ELEMENTARY (SPS-DISTRICT),6,ballard,1991,1.0,2.0,0,55513,K-12 School,K-12 School,57904.0,91.0,47.67031559,-122.3622592,11.24,1612965.0
100,Nonresidential COS,Other,FIRE STATION 10/FAC/EOC,2,downtown,2006,1.0,4.0,0,61156,"Office, Other",Other,42755.0,,47.60158047,-122.32771508,220.94,10434387.0
101,NonResidential,Other,WING LUKE MUSEUM/KONG YICK BLDG.,2,downtown,1910,1.0,4.0,0,72820,Museum,Museum,58000.0,,47.59809588,-122.32282830000001,42.99,2076630.0
102,NonResidential,Hotel,HAMPTON INN & SUITES,7,magnolia / queen anne,1996,1.0,4.0,14200,148022,"Hotel, Parking",Hotel,113702.0,75.0,47.62557152,-122.347197,208.03,7753080.0
103,SPS-District K-12,K-12 School,FRANKLIN HIGH SCHOOL (SPS-DISTRICT),2,southeast,1990,1.0,4.0,0,289588,K-12 School,K-12 School,289588.0,92.0,47.57604857,-122.2928463,181.93,8747819.0
104,NonResidential,College/University,SCC FINE ARTS BLDG,3,east,1915,1.0,3.0,0,63330,College/University,College/University,64820.0,,47.61496242,-122.3217405,60.35,2755578.0
105,Campus,College/University,SOUTH SEATTLE COMMUNITY COLLEGE - CAMPUS MASTER ID,1,delridge,1970,1.0,2.0,0,441071,College/University,College/University,483000.0,,47.54550494,-122.3500523,839.79,37430780.0
106,NonResidential,Small- and Mid-Sized Office,SEATTLE CHILDREN'S HOSPITAL (70th & SAND POINT ADMIN BLDG),4,northeast,2002,1.0,2.0,0,96300,"Data Center, Office",Office,92300.0,,47.67843749,-122.26417020000001,224.13,16238985.0
107,Nonresidential COS,Other,CSC Vehicle Maintenance (E),2,greater duwamish,1950,1.0,1.0,0,67356,"Repair Services (Vehicle, Shoe, Locksmith, etc)","Repair Services (Vehicle, Shoe, Locksmith, etc)",68359.0,,47.59455098,-122.32181270000001,211.33,6577130.0
108,SPS-District K-12,K-12 School,GARFIELD HIGH (SPS-DISTRICT),3,central,2008,1.0,3.0,0,254523,K-12 School,K-12 School,254523.0,62.0,47.60502046,-122.30183259999998,366.61,13609040.0
109,SPS-District K-12,K-12 School,EMERSON ELEMENTARY SCHOOL (SPS-DISTRICT),2,southeast,2001,1.0,3.0,0,78804,K-12 School,K-12 School,78804.0,92.0,47.51466446,-122.25881869999999,53.45,2447651.0
110,SPS-District K-12,K-12 School,MADRONA SCHOOL (SPS-DISTRICT),3,central,2002,1.0,3.0,0,66994,K-12 School,K-12 School,66994.0,83.0,47.61229388,-122.2908219,39.29,2266570.0
111,SPS-District K-12,K-12 School,VAN ASSELT @  (SPS-DISTRICT),2,greater duwamish,2000,1.0,3.0,0,98357,K-12 School,K-12 School,98357.0,90.0,47.52933502,-122.28844452,82.55,3265995.0
112,NonResidential,Small- and Mid-Sized Office,UNION GOSPEL MISSION ASSN,2,greater duwamish,1958,1.0,1.0,0,54765,"Office, Other",Office,25765.0,,47.53830025,-122.28405320000002,59.61,4316654.0
113,NonResidential,Other,UNION GOSPEL MISSION ASSN / HOPE PLACE,2,greater duwamish,2009,1.0,5.0,0,89821,"Food Service, Office, Other - Lodging/Residential",Other - Lodging/Residential,46483.0,,47.53830025,-122.28405320000002,104.17,2017694.0
114,NonResidential,College/University,OTTO MILLER HALL,7,magnolia / queen anne,1980,1.0,2.0,0,52611,College/University,College/University,52611.0,,47.65153666,-122.36154640000001,105.32,4399828.0
115,NonResidential,Residence Hall/Dormitory,"EMERSON HALL, SEATTLE PACIFIC UNIVERSITY",7,magnolia / queen anne,2001,1.0,4.0,37500,102100,Residence Hall/Dormitory,Residence Hall/Dormitory,135520.0,88.0,47.65076266,-122.3638034,123.02,4418055.0
116,SPS-District K-12,K-12 School,NATHAN HALE HIGH (SPS-DISTRICT),5,north,2011,1.0,2.0,0,236758,"K-12 School, Parking",K-12 School,237357.0,96.0,47.70783561,-122.294626,202.97,8050977.0
117,NonResidential,Other,YOUTH SERVICES CENTER - KING COUNTY,3,central,1971,1.0,6.0,0,250981,"Courthouse, Other",Other,137565.0,,47.60411727,-122.3153334,398.56,13901935.0
118,SPS-District K-12,K-12 School,GREENWOOD ELEMENTARY (SPS-DISTRICT),6,northwest,2002,1.0,3.0,0,62526,K-12 School,K-12 School,62526.0,97.0,47.68734351,-122.3598407,49.08,1841968.0
119,NonResidential,Small- and Mid-Sized Office,EMERALD SERVICES,2,greater duwamish,2007,1.0,3.0,0,64015,"Non-Refrigerated Warehouse, Office, Other - Services",Office,30000.0,19.0,47.5353246,-122.3186034,53.27,3349666.0
120,NonResidential,Retail Store,NORTHGATE MALL SHOPPING CENTER RETAIL STORES  - ACTIVE/PRIMARY ID,5,north,1951,1.0,1.0,0,530039,"Restaurant, Retail Store",Retail Store,505103.0,98.0,47.70752593,-122.3267018,765.56,29067292.0
121,NonResidential,Other,KINDRED HOSPITAL,5,north,1964,1.0,3.0,0,54224,Other/Specialty Hospital,Other/Specialty Hospital,47012.0,,47.70624752,-122.3217548,249.01,7613116.0
122,NonResidential,Retail Store,NORDSTROM- NORTHGATE MALL,5,north,1965,1.0,4.0,0,124342,Retail Store,Retail Store,122000.0,75.0,47.70798492,-122.32534027,65.14,8835104.0
124,NonResidential,Other,Verity Credit Union,5,northwest,1996,1.0,3.0,0,55442,"Financial Office, Medical Office, Parking",Financial Office,28636.0,74.0,47.70952866,-122.33465749999999,80.49,3091559.0
125,SPS-District K-12,K-12 School,BALLARD HIGH (SPS-DISTRICT),6,ballard,1999,1.0,2.0,0,242795,K-12 School,K-12 School,242795.0,82.0,47.67678666,-122.37396820000001,119.09,8728584.0
126,NonResidential,"Self-Storage Facility
",MADISON SELF STORAGE (NOT PART OF CAMPUS),3,east,1910,1.0,5.0,0,84870,Self-Storage Facility,Self-Storage Facility,85521.0,,47.61229181,-122.3170942,40.35,1136698.0
127,Campus,College/University,NORTH SEATTLE COMMUNITY COLLEGE CAMPUS MASTER ID,5,northwest,1970,11.0,2.0,111625,582447,College/University,College/University,667265.0,,47.69879162,-122.3338342,440.31,37117212.0
128,SPS-District K-12,K-12 School,SHARPLES JR HIGH (SPS-DISTRICT),2,southeast,1952,1.0,2.0,0,173185,K-12 School,K-12 School,173185.0,72.0,47.54657866,-122.2820193,282.34,6863464.0
129,SPS-District K-12,K-12 School,BOREN JR. HIGH SCHOOL (SPS-DISTRICT),1,delridge,1963,1.0,1.0,0,145341,K-12 School,K-12 School,139069.0,77.0,47.54806021,-122.36200190000001,177.1,4998015.0
130,NonResidential,Non-Refrigerated Warehouse,RAINIER BOTTLING PLANT,2,greater duwamish,1904,1.0,4.0,0,114297,Non-Refrigerated Warehouse,Non-Refrigerated Warehouse,114297.0,67.0,47.54941628,-122.31604209999999,52.94,1738724.0
131,SPS-District K-12,K-12 School,RAINIER BEACH HIGH SCHOOL (SPS-DISTRICT),2,southeast,1960,1.0,2.0,0,184125,K-12 School,K-12 School,184125.0,89.0,47.52383423,-122.26601409999998,294.12,8037287.0
132,SPS-District K-12,K-12 School,WHITMAN JR HIGH (SPS-DISTRICT),6,ballard,1959,1.0,1.0,0,160270,K-12 School,K-12 School,160270.0,79.0,47.69689628,-122.37785259999998,212.02,5674450.0
133,NonResidential,Non-Refrigerated Warehouse,SEARS & OTHERS WAREHOUSE #8109,2,greater duwamish,1937,1.0,1.0,0,234144,Non-Refrigerated Warehouse,Non-Refrigerated Warehouse,234144.0,82.0,47.55860699,-122.3332277,320.35,7370743.0
134,NonResidential,Retail Store,WESTWOOD VILLAGE - BLDG A,1,delridge,1966,1.0,1.0,0,64984,Retail Store,Retail Store,65425.0,76.0,47.52131741,-122.36689740000001,32.75,2721646.0
135,NonResidential,Retail Store,WESTWOOD VILLAGE - BLDG B (Includes QFC),1,delridge,1965,1.0,1.0,0,67745,Retail Store,Retail Store,67782.0,31.0,47.52131741,-122.36689740000001,368.63,9560965.0
136,SPS-District K-12,K-12 School,DENNY/ SEALTH CAMPUS (SPS-DISTRICT),1,delridge,2010,1.0,2.0,0,367884,K-12 School,K-12 School,367884.0,93.0,47.52967421,-122.36665559999999,271.32,12263687.0
137,SPS-District K-12,K-12 School,ROXHILL ELEMENTARY SCHOOL(SPS-DISTRICT),1,delridge,1958,1.0,1.0,0,46797,K-12 School,K-12 School,46797.0,86.0,47.51791397,-122.37067739999999,62.2,1911611.0
138,SPS-District K-12,K-12 School,WASHINGTON JR HIGH SCHOOL(SPS-DISTRICT),3,central,1963,1.0,3.0,0,136188,K-12 School,K-12 School,136188.0,67.0,47.59792434,-122.30394720000001,178.5,5436057.0
139,NonResidential,Other,NORDIC HERITAGE MUSEUM (WEBSTER BLDG),6,ballard,1973,1.0,3.0,0,56000,Other,Other,56000.0,,47.67771413,-122.39623370000001,53.61,1755264.0
140,SPS-District K-12,K-12 School,KING (BRIGHTON) ELEMENTARY SCHOOL (SPS-DISTRICT),2,southeast,2004,1.0,2.0,0,67371,K-12 School,K-12 School,67371.0,92.0,47.54197311,-122.27677917,42.8,2075833.0
141,NonResidential,"Self-Storage Facility
",U-HAUL RENTALS & MINI-STORAGE,1,southwest,1969,1.0,2.0,0,52088,Self-Storage Facility,Self-Storage Facility,52088.0,,47.54506084,-122.3773622,39.54,1186800.0
142,SPS-District K-12,K-12 School,HAMILTON MIDDLE (SPS-DISTRICT),4,lake union,2010,1.0,3.0,0,127776,K-12 School,K-12 School,127776.0,81.0,47.6572102,-122.3375797,56.96,4213726.0
143,NonResidential,Hotel,SILVER CLOUD INN LAKE UNION,3,lake union,1998,1.0,5.0,30000,93920,"Hotel, Parking, Swimming Pool",Hotel,123920.0,82.0,47.62970427,-122.3290596,289.43,8964061.0
144,Nonresidential COS,Other,ARMORY BUILDING (MOHAI),3,lake union,1900,1.0,1.0,0,58000,Museum,Museum,43000.0,,47.62759406,-122.3366092,221.62,7338511.0
145,Nonresidential COS,Non-Refrigerated Warehouse,SEATTLE CITY LIGHT ROY STREET WAREHOUSE,7,magnolia / queen anne,1926,1.0,2.0,0,50292,"Non-Refrigerated Warehouse, Office, Other - Services, Residence Hall/Dormitory",Non-Refrigerated Warehouse,42345.0,,47.62651741,-122.340841,4.99,715446.0
146,NonResidential,Hotel,COURTYARD BY MARRIOTT - SEATTLE,7,magnolia / queen anne,1998,1.0,7.0,54341,153315,Hotel,Hotel,141591.0,77.0,47.62754003,-122.34057320000001,314.26,10735331.0
147,SPS-District K-12,K-12 School,WHITTIER ELEMENTARY (SPS-DISTRICT),6,ballard,1999,1.0,2.0,0,67235,K-12 School,K-12 School,67235.0,85.0,47.68367156,-122.3729249,44.06,2364351.0
148,Nonresidential COS,Small- and Mid-Sized Office,CITY OF SEATTLE - NSC,5,northwest,1957,1.0,2.0,0,85017,"Data Center, Distribution Center, Office, Other, Parking",Office,57968.0,40.0,47.69975953,-122.340249,166.73,9146727.0
149,SPS-District K-12,K-12 School,GATEWOOD ELEMENTARY SCHOOL (SPS-DISTRICT),1,southwest,1991,1.0,3.0,0,58118,K-12 School,K-12 School,59014.0,97.0,47.54026729,-122.3884963,17.86,1362993.0
150,NonResidential,Hotel,HOTEL NEXUS - NORTHGATE,5,northwest,1968,1.0,4.0,0,64893,Hotel,Hotel,64893.0,73.0,47.70923419,-122.3323693,206.3,6056481.0
151,SPS-District K-12,K-12 School,OLYMPIC VIEW (SPS-DISTRICT),5,north,1989,1.0,2.0,0,52792,K-12 School,K-12 School,55480.0,98.0,47.69820046,-122.32108500000001,8.56,1227290.0
152,SPS-District K-12,K-12 School,VAN ASSELT SCHOOL (SPS-DISTRICT),2,greater duwamish,1925,1.0,1.0,0,70762,K-12 School,K-12 School,70762.0,95.0,47.53836703,-122.2964274,138.96,2933003.0
153,NonResidential,Small- and Mid-Sized Office,WASHINGTON PARK BUILDING,7,downtown,1900,1.0,3.0,0,56456,"Office, Restaurant, Self-Storage Facility",Office,34416.0,83.0,47.601058,-122.335182,26.55,1527917.0
154,NonResidential,Other,CENTURYLINK FIELD-Stadium,2,greater duwamish,1999,1.0,6.0,327680,1258280,"Other - Entertainment/Public Assembly, Parking",Other - Entertainment/Public Assembly,1585960.0,,47.59435403,-122.3301787,834.11,59991984.0
155,Nonresidential COS,"Distribution Center
",CITY LIGHT - SOUTH SERVICE CENTER BLDG A,2,greater duwamish,1924,1.0,2.0,0,179161,"Data Center, Distribution Center, Office, Other",Distribution Center,117476.0,,47.57125847,-122.331498,98.95,9974370.0
156,Nonresidential COS,Non-Refrigerated Warehouse,CITY LIGHT - SOUTH SERVICE CENTER BLDG B,2,greater duwamish,1965,1.0,2.0,0,50000,"Non-Refrigerated Warehouse, Office, Other, Other - Services",Non-Refrigerated Warehouse,40831.0,,47.57125847,-122.331498,28.7,4116805.0
157,NonResidential,Other,SAFECO FIELD,2,greater duwamish,1999,1.0,3.0,0,1172127,Other - Entertainment/Public Assembly,Other - Entertainment/Public Assembly,1172127.0,,47.59134229,-122.3319719,1236.93,57514116.0
158,NonResidential,Hotel,SILVER CLOUD INN SEATTLE,2,greater duwamish,2005,1.0,9.0,14567,153882,"Food Service, Hotel, Parking",Hotel,135006.0,61.0,47.59271999,-122.3336896,402.03,13116256.0
159,NonResidential,Non-Refrigerated Warehouse,HARBOR ISLAND WAREHOUSE - KING COUNTY,1,greater duwamish,1916,1.0,4.0,0,79600,Non-Refrigerated Warehouse,Non-Refrigerated Warehouse,79600.0,55.0,47.57463912,-122.3560342,12.46,1786986.0
160,SPS-District K-12,SPS-District K-12,LINCOLN HIGH (SPS-DISTRICT),4,lake union,1997,1.0,4.0,0,241066,,,,74.0,47.66006599,-122.33934440000002,263.53,7870351.0
161,Campus,Large Office,BOEING SOUTH PARK CAMPUS REPORT,1,greater duwamish,1980,16.0,2.0,31874,302494,"Laboratory, Office, Parking",Office,260000.0,,47.52440204,-122.3115544,706.26,52273792.0
162,NonResidential,Other,THORNTON CINEMA BUILDING & PARKING GARAGE,5,north,2008,1.0,6.0,335109,84739,"Fast Food Restaurant, Medical Office, Movie Theater, Parking, Retail Store",Parking,335109.0,,47.7024765,-122.32480621,163.99,9477865.0
163,NonResidential,Mixed Use Property,TRIBECA CONDOS & STORE,7,magnolia / queen anne,2002,1.0,4.0,39179,71606,"Financial Office, Multifamily Housing, Parking, Retail Store, Supermarket/Grocery Store",Multifamily Housing,58563.0,,47.62392426,-122.35764313,91.53,10608788.0
164,Multifamily MR (5-9),Mid-Rise Multifamily,2024 THIRD AVE/YWCA,7,downtown,2003,1.0,7.0,0,116947,"Multifamily Housing, Office, Other - Lodging/Residential, Retail Store",Multifamily Housing,81740.0,,47.61314884,-122.3415521,263.57,9689634.0
165,Multifamily LR (1-4),Low-Rise Multifamily,WEST SEATTLE COMM. RESOURCE CENTER/FOOD BANK APT/MIXED USE,1,delridge,2007,1.0,4.0,0,52134,Multifamily Housing,Multifamily Housing,52134.0,85.0,47.54423839,-122.376171,8.45,1212551.0
168,SPS-District K-12,K-12 School,HIGHLAND PARK SCHOOL (SPS-DISTRICT),1,delridge,1999,1.0,1.0,0,71714,K-12 School,K-12 School,71714.0,89.0,47.52560204,-122.3487068,30.27,2223321.0
169,NonResidential,Non-Refrigerated Warehouse,MINI-WAREHOUSE/RETAIL,4,lake union,1991,1.0,3.0,8161,67236,"Non-Refrigerated Warehouse, Parking",Non-Refrigerated Warehouse,67236.0,91.0,47.65094364,-122.34223770000001,8.66,516216.0
171,NonResidential,Senior Care Community,ID VILLAGE SQUARE 1,2,downtown,1999,1.0,5.0,12611,90185,"K-12 School, Medical Office, Office, Restaurant, Retail Store, Senior Care Community",Senior Care Community,55259.0,,47.59626518,-122.3219466,197.3,10620628.0
172,SPS-District K-12,K-12 School,WEST SEATTLE HIGH SCHOOL (SPS-DISTRICT),1,southwest,2002,1.0,2.0,0,208981,K-12 School,K-12 School,208981.0,84.0,47.57662845,-122.3846578,175.9,7564604.0
173,Multifamily MR (5-9),Mid-Rise Multifamily,THE WINTONIA,7,east,1909,1.0,6.0,0,51976,Multifamily Housing,Multifamily Housing,50350.0,37.0,47.61358781,-122.32793190000001,127.73,3918038.0
174,NonResidential,K-12 School,UNIVERSITY HTS GRADE SCHOOL,4,northeast,1928,1.0,2.0,0,55653,K-12 School,K-12 School,55500.0,84.0,47.66549171,-122.31400670000001,105.92,2003474.0
175,NonResidential,Hotel,HOTEL DECA,4,northeast,1931,1.0,16.0,0,106860,Hotel,Hotel,106860.0,46.0,47.66156526,-122.3146098,467.18,12087498.0
176,NonResidential,Small- and Mid-Sized Office,LAKE CITY CENTER,5,north,1972,1.0,5.0,0,50759,"Office, Restaurant",Office,47079.0,63.0,47.71892746,-122.29475890000002,43.78,3045139.0
177,NonResidential,Worship Facility,UNIV CONGREGATIONAL CHURCH,4,northeast,1952,1.0,2.0,0,56772,Worship Facility,Worship Facility,56772.0,49.0,47.66176886,-122.31120370000001,80.79,2349950.0
178,NonResidential,Worship Facility,UNIVERSITY PRESBY CHURCH,4,northeast,1952,1.0,3.0,0,103000,Worship Facility,Worship Facility,103000.0,40.0,47.66262897,-122.31147539999999,144.53,4864408.0
179,SPS-District K-12,K-12 School,ROOSEVELT HIGH (SPS-DISTRICT),4,northeast,2006,1.0,3.0,0,269297,K-12 School,K-12 School,269297.0,79.0,47.67746117,-122.3130281,192.09,10281586.0
180,SPS-District K-12,K-12 School,BRYANT ELEMENTARY (SPS-DISTRICT),4,northeast,2001,1.0,3.0,0,75174,K-12 School,K-12 School,75174.0,80.0,47.67115081,-122.29181820000001,68.3,2654755.0
181,SPS-District K-12,K-12 School,FRANTZ H COE ELEMENTARY SCHOOL (SPS-DISTRICT),7,magnolia / queen anne,2003,1.0,3.0,0,75214,K-12 School,K-12 School,75214.0,87.0,47.64090041,-122.3656176,38.55,2295845.0
182,SPS-District K-12,K-12 School,JAMES MADISON JR HIGH SCHOOL (SPS-DISTRICT),1,southwest,2005,1.0,3.0,0,134918,K-12 School,K-12 School,134918.0,92.0,47.5724098,-122.3916721,65.33,3773040.0
183,SPS-District K-12,K-12 School,THURGOOD MARSHALL (SPS-DISTRICT),3,central,1991,1.0,2.0,0,64414,K-12 School,K-12 School,64714.0,63.0,47.59101433,-122.2981281,16.83,2414679.0
184,SPS-District K-12,K-12 School,"MARSHALL, JOHN (SPS-DISTRICT)",6,northwest,1927,1.0,3.0,0,92437,K-12 School,K-12 School,92437.0,71.0,47.67726399,-122.32233670000001,218.12,4986643.0
185,NonResidential,Other,ACT THEATER,7,downtown,1914,1.0,7.0,0,128766,"Office, Other, Other - Entertainment/Public Assembly",Other - Entertainment/Public Assembly,109754.0,,47.61104202,-122.33238983,56.32,6550618.0
186,NonResidential,Residence Hall/Dormitory,YWCA Women's Residence,7,downtown,1913,1.0,9.0,0,107572,"Office, Residence Hall/Dormitory, Retail Store",Residence Hall/Dormitory,63934.0,71.0,47.60775556,-122.33247240000001,223.86,5445025.0
187,NonResidential,Other,CENTURYLINK: 3RD AVE 3-D,7,downtown,1955,1.0,15.0,0,230880,Other,Other,203000.0,,47.60683648,-122.33466940000001,443.86,63668488.0
188,Multifamily LR (1-4),Low-Rise Multifamily,COOPER SCHOOL ARTIST'S LOFTS,1,delridge,1917,1.0,4.0,0,56617,Multifamily Housing,Multifamily Housing,56617.0,18.0,47.56364367,-122.3629825,47.96,1912904.0
189,Multifamily MR (5-9),Mid-Rise Multifamily,LAKE CITY COURT,5,north,2009,1.0,6.0,0,56745,Multifamily Housing,Multifamily Housing,43673.0,57.0,47.72231008,-122.2918283,56.51,2404644.0
190,Multifamily LR (1-4),Low-Rise Multifamily,OTHELLO BUILDING,2,greater duwamish,2003,1.0,4.0,0,67920,"Medical Office, Multifamily Housing, Office, Retail Store",Multifamily Housing,24600.0,,47.53683267,-122.2840381,28.0,2886468.0
191,SPS-District K-12,K-12 School,CLEVELAND HIGH SCHOOL (SPS-DISTRICT),2,greater duwamish,2007,1.0,3.0,0,204961,K-12 School,K-12 School,204961.0,94.0,47.55156934,-122.31380359999999,202.07,7971886.0
192,NonResidential,Other,WA ARMY NAT'L GUARD,7,magnolia / queen anne,1973,1.0,1.0,0,76086,Other,Other,77810.0,,47.63640533,-122.37916940000001,80.75,2903161.0
193,NonResidential,Medical Office,ELLIOTT PARK BUILDING,7,magnolia / queen anne,1927,1.0,5.0,39000,151000,"Medical Office, Office",Medical Office,146741.0,7.0,47.61994816,-122.36066409999998,371.48,19816686.0
194,NonResidential,Hotel,EDGEWATER INN,7,downtown,1961,1.0,4.0,0,122309,,,,13.0,47.61245737,-122.3521832,977.73,24060332.0
195,Campus,Other,PORT OF SEATTLE  BELL HARBOR COMPLEX  & CONFERENCE - CAMPUS,7,downtown,1995,4.0,3.0,0,215476,Other,Other,217088.0,,47.61120625,-122.34849684,659.56,25377650.0
196,NonResidential,Hotel,SEATTLE WATERFRONT MARRIOTT,7,downtown,2003,1.0,8.0,38800,215473,Hotel,Hotel,277000.0,23.0,47.61067514,-122.3465482,798.63,27787286.0
197,Nonresidential COS,Other,SEATTLE AQUARIUM,7,downtown,1980,1.0,2.0,0,69400,Other - Entertainment/Public Assembly,Other - Entertainment/Public Assembly,69400.0,,47.60725784,-122.34207153,305.15,15671253.0
198,NonResidential,Other,PIER 54  IVARS ACRES OF CLAMS,7,downtown,1900,1.0,1.0,0,62900,"Other, Restaurant, Retail Store",Other,42695.0,,47.60411925,-122.3396021,211.01,6366808.0
199,NonResidential,Small- and Mid-Sized Office,DAILY JOURNAL BUILDING,7,downtown,1914,1.0,4.0,0,40000,"Office, Retail Store",Office,33000.0,98.0,47.60272217,-122.33557892,45.32,1372706.0
200,NonResidential,Non-Refrigerated Warehouse,BMW SEATTLE - SERVICE CENTER,2,greater duwamish,2008,1.0,4.0,0,203504,"Non-Refrigerated Warehouse, Other - Services",Non-Refrigerated Warehouse,159372.0,72.0,47.59457628,-122.3244189,26.35,3780078.0
201,NonResidential,Large Office,KIRO RADIO & TELEVISION,7,downtown,1968,1.0,3.0,26731,74003,,,,34.0,47.61744918,-122.35032532,71.62,10273140.0
202,NonResidential,Small- and Mid-Sized Office,GRANGE OFFICE PLAZA,7,downtown,1981,1.0,4.0,17570,62108,"Office, Parking",Office,62108.0,59.0,47.61698381,-122.34958888,61.62,4829951.0
203,NonResidential,Large Office,FOURTH & BATTERY BUILDING,7,downtown,1978,1.0,12.0,21790,212210,"Financial Office, Laboratory, Office, Parking",Office,175915.0,36.0,47.61591919,-122.34571548,145.67,19176010.0
204,NonResidential,Retail Store,WESTLAKE MALL RETAIL PORTION,7,downtown,1989,1.0,4.0,0,111077,,,,91.0,47.61171108,-122.33681575,69.01,9898724.0
205,NonResidential,Large Office,WEST LAKE TOWER OFFICE BUILDING,7,downtown,1989,1.0,25.0,0,369996,"Office, Parking",Office,380397.0,71.0,47.61175275,-122.33667433,173.47,24882924.0
206,NonResidential,Retail Store,NORDSTROM DOWNTOWN,7,downtown,1925,1.0,10.0,0,693450,"Office, Retail Store",Retail Store,361107.0,92.0,47.6124792,-122.33586069,392.65,40433292.0
207,NonResidential,Large Office,CENTURYLINK: SEATTLE BELL PLAZA,7,downtown,1976,1.0,33.0,0,791396,"Office, Other, Parking, Restaurant",Office,637099.0,89.0,47.61323929,-122.33440399,282.01,40451748.0
208,NonResidential,Large Office,1700 SEVENTH BUILDING,7,downtown,2000,1.0,23.0,205076,542671,"Office, Parking, Restaurant",Office,542461.0,88.0,47.61374903,-122.33507976,374.82,32141070.0
209,NonResidential,Small- and Mid-Sized Office,LLOYD BUILDING,7,downtown,1926,1.0,10.0,7757,55652,"Office, Retail Store",Office,45260.0,92.0,47.61378582,-122.33638554,152.04,3137206.0
210,NonResidential,Large Office,TOWER BLDG,7,downtown,1930,1.0,17.0,30000,174790,"Office, Other - Recreation, Parking, Retail Store",Office,142034.0,92.0,47.61391297,-122.33581187,94.89,7546235.0
211,NonResidential,Small- and Mid-Sized Office,TIMES SQUARE BUILDING (THE VANCE CORPORATION),7,downtown,1916,1.0,5.0,0,73399,"Office, Retail Store",Office,51557.0,63.0,47.61232632,-122.33842968,25.48,3655453.0
212,NonResidential,Large Office,PLAZA 600 BUILDING,7,downtown,1969,1.0,20.0,32334,233517,"Office, Parking",Office,226454.0,95.0,47.61419225,-122.33715661,509.69,12943756.0
213,NonResidential,Large Office,WEST 8TH,7,downtown,2009,1.0,25.0,228668,529375,"Office, Parking",Office,582725.0,96.0,47.61586761,-122.33737946,198.93,24641772.0
214,NonResidential,Large Office,DENNY BUILDING,7,downtown,1968,1.0,12.0,0,206000,"Office, Parking",Office,161000.0,88.0,47.61673455,-122.34198091,228.07,9273278.0
215,NonResidential,Large Office,1918 EIGHTH AVE,7,downtown,2009,1.0,36.0,154972,669915,"Office, Parking",Office,743562.0,97.0,47.61596574,-122.33609553,267.71,38400928.0
216,NonResidential,Large Office,1800 9TH AVENUE BUILDING,7,downtown,1990,1.0,16.0,141600,339240,"Fitness Center/Health Club/Gym, Office, Other, Parking, Restaurant",Office,311736.0,94.0,47.61577337,-122.33379691,128.87,17653930.0
218,NonResidential,Small- and Mid-Sized Office,BRODERICK BUILDING,7,downtown,1900,1.0,7.0,0,89550,"Office, Retail Store, Social/Meeting Hall",Office,64712.0,81.0,47.60260831,-122.33300887,50.6,4112006.0
219,NonResidential,Small- and Mid-Sized Office,PIONEER BUILDING,7,downtown,1900,1.0,6.0,0,89355,"Office, Retail Store",Office,82355.0,55.0,47.60188691,-122.33410075,37.14,4742636.0
220,NonResidential,Large Office,DEXTER HORTON BUILDING,7,downtown,1922,1.0,15.0,0,388934,Office,Office,388934.0,84.0,47.60349737,-122.33226722,208.81,20309614.0
221,NonResidential,Large Office,EXCHANGE BUILDING,7,downtown,1929,1.0,22.0,0,384302,"Convenience Store without Gas Station, Food Service, Office",Office,348969.0,98.0,47.60402644,-122.33430506,68.75,9861998.0
222,NonResidential,Large Office,NORTON BUILDING,7,downtown,1958,1.0,17.0,84600,293925,"Office, Parking, Restaurant",Office,236827.0,68.0,47.60390362,-122.33424932,862.64,25476332.0
223,NonResidential,Large Office,999 THIRD AVE,7,downtown,1983,1.0,47.0,0,1323055,"Office, Parking, Restaurant",Office,1011135.0,93.0,47.60523404,-122.33465706,321.72,45074876.0
224,NonResidential,Large Office,1000 2ND AVENUE BUILDING,7,downtown,1986,1.0,41.0,129432,460489,"Office, Parking, Pre-school/Daycare",Office,485296.0,82.0,47.60533104,-122.33503955,182.71,26208138.0
225,NonResidential,Small- and Mid-Sized Office,FEDERAL RESERVE BUILDING,7,downtown,1950,1.0,6.0,1392,89699,"Office, Parking",Office,89699.0,,47.60537505,-122.33562820000002,58.99,2373031.0
226,NonResidential,Large Office,1101 SECOND AVE OFFICE BUILDING,7,downtown,1968,1.0,8.0,62993,94948,"Office, Parking",Office,84838.0,89.0,47.60571018,-122.33639455,22.01,3157579.0
227,NonResidential,Large Office,2ND & SENECA BLDS,7,downtown,1991,1.0,29.0,197231,438072,"Convenience Store without Gas Station, Office, Parking",Office,522667.0,97.0,47.60611343,-122.33672333,139.34,18350766.0
228,NonResidential,Large Office,SECOND AND SPRING BUILDING,7,downtown,1958,1.0,6.0,25920,146922,"Data Center, Office, Parking",Office,92310.0,,47.60601562,-122.33569636,358.88,41092076.0
229,NonResidential,Large Office,1111 3RD AVE BUILDING,7,downtown,1980,1.0,34.0,162604,614158,"Office, Parking",Office,606050.0,77.0,47.60619421,-122.33526667,216.66,30135280.0
230,NonResidential,Large Office,ABRAHAM LINCOLN BUILDING,7,downtown,1972,1.0,14.0,23775,162993,"Data Center, Office, Parking",Office,182540.0,95.0,47.60668182,-122.33452606,218.49,9700372.0
231,NonResidential,Large Office,SAFECO PLAZA / 1001 FOURTH AVENUE,7,downtown,1969,1.0,49.0,368980,754455,"Financial Office, Food Sales, Office, Other, Parking",Office,808980.0,88.0,47.60633748,-122.33369209,704.76,47148456.0
232,NonResidential,Large Office,FOURTH & MADISON ( IDX TOWER),7,downtown,2002,1.0,37.0,164420,888049,"Convenience Store without Gas Station, Data Center, Financial Office, Fitness Center/Health Club/Gym, Office, Other, Parking, Personal Services (Health/Beauty, Dry Cleaning, etc), Restaurant",Office,763260.0,93.0,47.60566548,-122.33261347,290.4,41655852.0
233,NonResidential,Large Office,901 FIFTH AVENUE,7,downtown,1973,1.0,42.0,171500,446184,,,,79.0,47.60605613,-122.33178821,449.01,37527176.0
234,NonResidential,Large Office,CENTRAL BUILDING,7,downtown,1907,1.0,8.0,0,201480,"Non-Refrigerated Warehouse, Office, Retail Store",Office,161762.0,88.0,47.60504384,-122.33274356,180.89,9734582.0
235,Nonresidential COS,Large Office,SEATTLE MUNICIPAL TOWER,3,downtown,1990,1.0,63.0,159600,1035787,"Office, Other, Parking",Office,1187924.0,82.0,47.60491077,-122.32891587,452.16,64715652.0
236,Nonresidential COS,Large Office,SEATTLE JUSTICE CENTER,3,downtown,2001,1.0,14.0,0,310490,"Data Center, Office, Other",Office,269284.0,,47.60403674,-122.32877322,381.89,21781324.0
237,Nonresidential COS,Large Office,CITY HALL,7,downtown,2003,1.0,8.0,30660,168870,"Office, Other, Parking, Restaurant",Office,160418.0,70.0,47.60363382,-122.32999251,300.3,13172813.0
238,NonResidential,Large Office,CHINOOK BLDG - KING COUNTY,7,downtown,2006,1.0,13.0,52703,319539,Office,Office,372242.0,98.0,47.60213517,-122.32847035,234.15,15083332.0
239,NonResidential,Large Office,YESLER BUILDING - KING COUNTY,7,downtown,1909,1.0,7.0,8296,106099,Office,Office,96582.0,98.0,47.60185187,-122.32859693,69.18,3098638.0
240,NonResidential,Retail Store,UNIVERSITY BOOK STORE,4,northeast,1978,1.0,2.0,0,89200,Retail Store,Retail Store,89200.0,83.0,47.6605111,-122.3128304,73.39,6289567.0
241,NonResidential,Small- and Mid-Sized Office,UNIVERSITY DISTRICT BUILDING,4,northeast,1961,1.0,5.0,0,99005,,,,63.0,47.66095645,-122.3162654,177.92,5814165.0
242,NonResidential,Large Office,4311 11th Avenue NE,4,northeast,2002,1.0,6.0,44248,90803,"Office, Parking",Office,95943.0,92.0,47.66044059,-122.31694350000001,28.07,4025787.0
243,NonResidential,Large Office,4300 ROOSEVELT,4,northeast,2002,1.0,5.0,82720,137929,"Office, Parking",Office,145754.0,93.0,47.66053047,-122.3174071,43.92,6299357.0
244,NonResidential,"Self-Storage Facility
",SEATTLE VAULT SELF STORAGE,7,downtown,1964,1.0,5.0,0,93660,Self-Storage Facility,Self-Storage Facility,93660.0,,47.61564776,-122.33229386,5.83,836348.0
245,NonResidential,Large Office,METROPOLITAN PARK I  (WEST) OFFICE BLDG,7,downtown,1980,1.0,18.0,64660,349055,"Office, Parking",Office,348270.0,82.0,47.61647081,-122.330698,166.68,23179128.0
246,NonResidential,Large Office,METROPOLITAN PARK NORTH BUILDING,7,downtown,2000,1.0,11.0,195621,185760,"Fitness Center/Health Club/Gym, Office",Office,164192.0,85.0,47.61788951,-122.33127667,73.67,9796649.0
247,NonResidential,Large Office,METROPOLITAN PARK EAST,7,downtown,1988,1.0,20.0,118744,378769,"Office, Parking",Office,367623.0,73.0,47.6166018,-122.32990312,189.56,25909504.0
248,NonResidential,Large Office,FOURTH & BLANCHARD BUILDING,7,downtown,1979,1.0,24.0,116721,427155,"Office, Parking",Office,432841.0,76.0,47.61420011,-122.34223589,180.14,25840362.0
249,NonResidential,Mixed Use Property,DENDREON,7,downtown,1980,1.0,4.0,38700,65497,"Laboratory, Office, Parking",Laboratory,42389.0,,47.61799869,-122.35459499,76.13,7004126.0
250,NonResidential,Large Office,THIRD AND BROAD BLDG,7,downtown,1982,1.0,6.0,124216,272410,"Office, Parking",Office,283267.0,66.0,47.61836011,-122.35263651,143.82,20630168.0
251,NonResidential,Large Office,5TH & BELL BUILDING,7,downtown,2002,1.0,6.0,83591,203880,,,,80.0,47.61605453,-122.34371185,129.21,13010612.0
252,NonResidential,Large Office,SIXTH & WALL BUILDING (FORMER GROUP HEALTH),7,downtown,1947,1.0,3.0,48512,144118,"Office, Parking",Office,141366.0,,47.61778529,-122.34439698,36.83,5240296.0
253,NonResidential,Large Office,3101 WESTERN (FORMERLY AIRBORNE BLDG),7,downtown,1984,1.0,8.0,61986,191117,"Laboratory, Office, Other, Parking",Office,163754.0,17.0,47.61797602,-122.35649532,156.08,22388122.0
254,NonResidential,Supermarket/Grocery Store,QUALITY FOOD CENTER (QFC) (OLD ART'S SHOPPING CENT,6,northwest,1956,1.0,1.0,0,60880,Supermarket/Grocery Store,Supermarket/Grocery Store,61666.0,60.0,47.70184827,-122.36437781,328.38,13320624.0
255,NonResidential,Small- and Mid-Sized Office,COLLINS BUILDING,7,downtown,1900,1.0,5.0,0,50176,"Office, Other, Restaurant",Office,29070.0,,47.60227966,-122.33202362,21.15,3033340.0
256,NonResidential,Large Office,SMITH TOWER,7,downtown,1912,1.0,42.0,0,304346,"Office, Other - Restaurant/Bar, Retail Store, Single Family Home",Office,277397.0,82.0,47.60188155,-122.33206429,597.76,19609472.0
257,NonResidential,Non-Refrigerated Warehouse,BUNGE FOODS,2,greater duwamish,1977,1.0,1.0,0,128800,"Non-Refrigerated Warehouse, Other",Non-Refrigerated Warehouse,119200.0,97.0,47.54032619,-122.33015747,82.43,1869575.0
258,NonResidential,Large Office,SKINNER BLDG,7,downtown,1927,1.0,8.0,0,321945,"Office, Performing Arts, Retail Store",Office,166919.0,79.0,47.60831575,-122.33544853,266.18,12745839.0
259,NonResidential,Large Office,IBM BUILDING,7,downtown,1964,1.0,22.0,0,336330,"Office, Other - Restaurant/Bar, Parking",Office,256299.0,75.0,47.60831575,-122.33544853,579.99,19854012.0
260,NonResidential,Large Office,PUGET SOUND PLAZA,7,downtown,1960,1.0,21.0,0,298426,"Office, Other - Education, Parking",Office,286538.0,68.0,47.60831575,-122.33544853,1088.2,30648154.0
261,NonResidential,Large Office,RAINIER TOWER,7,downtown,1976,1.0,42.0,0,635824,"Financial Office, Office, Other, Parking, Restaurant",Office,718473.0,56.0,47.60816177,-122.33434527,395.71,56762408.0
263,NonResidential,Retail Store,LOWES & AMAZON W # 0067,2,southeast,1980,1.0,2.0,0,291940,,,,84.0,47.57965631,-122.29880174,147.77,11541355.0
264,NonResidential,Mixed Use Property,THAW CORP,2,greater duwamish,1970,1.0,1.0,0,88400,"Distribution Center, Non-Refrigerated Warehouse, Office",Non-Refrigerated Warehouse,33450.0,11.0,47.52726155,-122.29392927,144.17,6471427.0
265,NonResidential,Non-Refrigerated Warehouse,"EUROPEAN SOAPS, LTD",5,northwest,1960,1.0,1.0,0,52311,Non-Refrigerated Warehouse,Non-Refrigerated Warehouse,51116.0,93.0,47.72957286,-122.34642876,55.69,1113488.0
266,NonResidential,Other,500 YALE AVENUE NORTH,7,lake union,2009,1.0,5.0,69710,71421,"Office, Parking",Parking,74831.0,,47.62320708,-122.32984117,20.25,2904225.0
267,NonResidential,Large Office,REPUBLICAN BUILDING,7,lake union,2001,1.0,5.0,70067,106465,"Office, Parking",Office,103494.0,44.0,47.62347121,-122.32929694,47.01,6743116.0
268,NonResidential,Non-Refrigerated Warehouse,ALASKA OUTPORT TRANSPORTATION ASSN,6,ballard,1973,1.0,1.0,0,52500,"Non-Refrigerated Warehouse, Office",Non-Refrigerated Warehouse,49395.0,4.0,47.65748867,-122.36767478,63.32,3415305.0
269,NonResidential,Non-Refrigerated Warehouse,SALMON BAY CENTER 5301,6,ballard,1959,1.0,2.0,0,57300,"Non-Refrigerated Warehouse, Office",Non-Refrigerated Warehouse,29001.0,54.0,47.66611816,-122.38549485,153.73,4547379.0
270,NonResidential,Large Office,SEATTLE TRADE AND TECHNOLOGY CENTER,7,downtown,1916,1.0,6.0,0,350310,"College/University, Office, Restaurant",Office,305233.0,89.0,47.61464888,-122.35357549999999,113.5,18586464.0
271,NonResidential,Large Office,WASH MUTUAL TOWER (1201 THIRD AVE),7,downtown,1988,1.0,55.0,285000,1115000,"Office, Other, Parking, Restaurant",Office,1021940.0,94.0,47.60722258,-122.33615290000002,569.61,51625548.0
272,NonResidential,Small- and Mid-Sized Office,GALLAND & SENECA BUILDINGS,7,downtown,1906,1.0,6.0,25920,72450,Office,Office,98370.0,45.0,47.60679898,-122.33710009999999,47.24,6525887.0
273,NonResidential,Hotel,WASHINGTON ATHLETIC CLUB,7,downtown,1930,1.0,21.0,0,305548,Hotel,Hotel,310000.0,61.0,47.60972214,-122.33361053,1391.7,32135246.0
274,NonResidential,Large Office,US BANK CENTRE,7,downtown,1989,1.0,46.0,512608,1023998,"Financial Office, Office, Other, Parking, Restaurant, Retail Store",Office,1002403.0,90.0,47.61047982,-122.33454170000002,530.7,55813996.0
275,NonResidential,Large Office,LOGAN BUILDING,7,downtown,1958,1.0,10.0,0,135918,Office,Office,128477.0,86.0,47.61002482,-122.3345291,191.83,6474724.0
276,NonResidential,Retail Store,O'SHEA BUILDING/GAP,7,downtown,1914,1.0,4.0,0,79957,"Office, Retail Store",Retail Store,35694.0,34.0,47.61144362,-122.3362264,39.6,5680701.0
277,NonResidential,Large Office,DECATUR BUILDING,7,downtown,1921,1.0,4.0,0,127268,"Non-Refrigerated Warehouse, Office, Retail Store",Office,62512.0,70.0,47.61151197,-122.3352453,138.28,7758182.0
278,NonResidential,Large Office,520 PIKE BUILDING,7,downtown,1983,1.0,29.0,0,500000,"Office, Parking",Office,425829.0,89.0,47.61123657,-122.33499146,133.5,19150024.0
279,NonResidential,Large Office,FOURTH & PIKE BUILDING,7,downtown,1926,1.0,10.0,0,132326,"Office, Other, Retail Store",Office,92006.0,65.0,47.6101265,-122.33613586,72.46,6664740.0
280,NonResidential,Large Office,WASHINGTON FEDERAL BUILDING,7,downtown,1984,1.0,6.0,13200,96630,"Office, Parking, Retail Store",Office,83485.0,40.0,47.61030844,-122.33568980000001,51.98,7456330.0
281,NonResidential,Hotel,MOTIF SEATTLE,7,downtown,1973,1.0,19.0,59280,272787,Hotel,Hotel,332067.0,8.0,47.60984368,-122.33588799999998,1231.19,35383012.0
282,NonResidential,Large Office,JOSHUA GREEN BUILDING,7,downtown,1910,1.0,10.0,0,130513,"Office, Restaurant, Retail Store",Office,87391.0,49.0,47.60985565,-122.33682251,266.78,11040500.0
283,NonResidential,Small- and Mid-Sized Office,MIKEN BLDG.,7,downtown,1920,1.0,8.0,0,60660,"Office, Retail Store",Office,41758.0,35.0,47.60950851,-122.33650208,20.06,2876857.0
284,NonResidential,Large Office,VANCE BUILDING & STERLING BLDG.,7,downtown,1929,1.0,14.0,0,137350,Office,Office,124508.0,89.0,47.60919189,-122.33681488,212.06,6578370.0
285,NonResidential,Large Office,1411 BUILDING,7,downtown,1929,1.0,15.0,0,151039,,,,84.0,47.60930252,-122.33631134,262.31,7226188.0
286,NonResidential,Large Office,CENTURY SQUARE,7,downtown,1985,1.0,30.0,134662,620338,"Bank Branch, Office, Other, Parking, Restaurant",Office,643083.0,67.0,47.61046458,-122.3376779,1241.23,59124384.0
287,NonResidential,Small- and Mid-Sized Office,CHROMER BUILDING,7,downtown,1906,1.0,4.0,0,63540,Office,Office,56747.0,57.0,47.60978885,-122.3388932,72.9,3999310.0
288,NonResidential,Large Office,MELBOURNE TOWER OFF,7,downtown,1927,1.0,10.0,0,130893,"Medical Office, Office, Supermarket/Grocery Store",Office,90787.0,72.0,47.60982895,-122.33834076,52.46,7524880.0
289,NonResidential,Mixed Use Property,POLL BUILDING,7,downtown,1910,1.0,5.0,0,79920,"Office, Other, Retail Store",Office,39960.0,,47.60831726,-122.33908810000001,20.37,2921368.0
290,Campus,Mixed Use Property,MAIN MARKET,7,downtown,1908,1.0,4.0,0,137400,"Food Sales, Multifamily Housing, Office, Other - Education, Other - Restaurant/Bar, Pre-school/Daycare, Restaurant, Retail Store, Supermarket/Grocery Store",Retail Store,44078.0,,47.60876917,-122.3411538,96.79,13883385.0
291,NonResidential,Other,MERIDIAN CENTER WEST,7,downtown,1996,1.0,6.0,86429,61423,"Office, Other - Restaurant/Bar, Parking, Retail Store",Parking,64821.0,,47.61178469,-122.3346004,168.09,8204897.0
292,NonResidential,Other,MERIDIAN CENTER EAST,7,downtown,1996,1.0,4.0,166960,100375,"Movie Theater, Other - Restaurant/Bar, Parking",Parking,166960.0,,47.61197207,-122.3341322,150.52,7782092.0
293,NonResidential,Large Office,TWO UNION SQUARE,7,downtown,1989,1.0,56.0,389860,1215718,"Office, Other, Parking",Office,1314475.0,97.0,47.61001362,-122.3323936,496.99,48342560.0
294,NonResidential,Large Office,ONE UNION SQUARE,7,downtown,1980,1.0,36.0,0,794592,"Office, Other, Parking",Office,748011.0,97.0,47.60964966,-122.33229065,209.67,25475474.0
295,NonResidential,Large Office,PARK PLACE OFFICE BLDG,7,downtown,1971,1.0,21.0,93204,363100,"Office, Parking",Office,342952.0,74.0,47.609093200000004,-122.3320105,136.6,19594950.0
296,NonResidential,Large Office,L&B CIP FIRST & STEWART LLC,7,downtown,1986,1.0,12.0,15140,100717,"Office, Parking, Restaurant",Office,104788.0,74.0,47.61022844,-122.34081680000001,38.65,5543575.0
297,NonResidential,Small- and Mid-Sized Office,WORLD TRADE CENTER-WEST,7,downtown,1999,1.0,4.0,17500,70000,"Office, Other",Office,70090.0,82.0,47.61123119,-122.34771090000002,27.37,3925806.0
298,NonResidential,Large Office,WORLD TRADE CENTER-EAST,7,downtown,1998,1.0,11.0,184776,189629,"Laboratory, Office",Office,182255.0,77.0,47.61160526,-122.3475713,83.13,11924933.0
299,NonResidential,Other,CENTURYLINK: LENORA MAIN,7,downtown,1985,1.0,12.0,38000,155500,Other,Other,146689.0,,47.61204042,-122.34370306,102.72,14735023.0
300,NonResidential,Large Office,TERMINAL SALES OFFICE BUILDING,7,downtown,1923,1.0,11.0,0,102846,"Office, Retail Store",Office,93879.0,97.0,47.611129,-122.34211699999999,233.43,4685346.0
301,NonResidential,Small- and Mid-Sized Office,MARSHALL BUILDING/DAHLIA LOUNGE,7,downtown,1925,1.0,4.0,0,52800,"Office, Restaurant",Office,38880.0,77.0,47.61302608,-122.3405801,52.67,2721954.0
302,Campus,Mixed Use Property,SECURITIES & MARKET BUILDING CAMPUS,7,downtown,1913,1.0,10.0,0,258497,"Data Center, Office, Parking, Restaurant, Retail Store",Parking,155000.0,,47.612128999999996,-122.33944699999999,404.51,23914744.0
303,NonResidential,Retail Store,MACY'S DOWNTOWN,7,downtown,1929,1.0,8.0,0,861702,"Other, Retail Store",Retail Store,889981.0,97.0,47.61148031,-122.3386049,123.96,16644664.0
304,NonResidential,Other,VIRGINIA MASON - BENAROYA RESEARCH INSTITUTE,7,east,1999,1.0,5.0,97400,109550,Other,Other,206950.0,,47.60999671,-122.32925159999998,248.15,19645206.0
306,NonResidential,Other,VIRGINIA MASON- HEALTH RESOURCES BUILDING,3,east,1988,1.0,9.0,0,46710,Urgent Care/Clinic/Other Outpatient,Urgent Care/Clinic/Other Outpatient,46710.0,,47.6104434,-122.3284162,132.66,4255322.0
307,NonResidential,Medical Office,VIRGINIA MASON- LINDEMAN PAVILION,3,east,1945,1.0,3.0,104000,162000,"Medical Office, Parking",Medical Office,162000.0,65.0,47.6104434,-122.3284162,229.84,14465798.0
308,NonResidential,Medical Office,1101 MADISON TOWER,3,east,1992,1.0,14.0,407795,282363,"Medical Office, Parking",Medical Office,270384.0,68.0,47.60921478,-122.32425690000001,131.35,18841144.0
309,NonResidential,Mixed Use Property,FISHER PLAZA - EAST BUILDING KOMO-TV STUDIOS,7,lake union,2001,1.0,6.0,177660,200783,,,,100.0,47.61932082,-122.3481439,474.54,57439532.0
310,NonResidential,Mixed Use Property,FISHER PLAZA - WEST BUILDING,7,lake union,2001,1.0,6.0,104922,108912,"Data Center, Financial Office, Office, Other, Parking, Restaurant",Parking,104922.0,100.0,47.61892137,-122.34857379999998,599.2,84980760.0
311,NonResidential,Hotel,BEST WESTERN EXECUTIVE INN - SEATTLE,7,lake union,1979,1.0,5.0,29409,79608,Hotel,Hotel,20000.0,27.0,47.62040582,-122.34591280000001,250.25,10018321.0
312,NonResidential,Large Office,KING BROADCASTING,7,lake union,1947,1.0,4.0,37854,155934,"Data Center, Office, Other, Parking, Restaurant",Office,138672.0,59.0,47.6214758,-122.34305020000001,116.84,16760217.0
313,NonResidential,Large Office,ELLIOTT BAY OFFICE PARK,7,magnolia / queen anne,1981,1.0,5.0,38452,237282,"Office, Parking",Office,231163.0,67.0,47.62168398,-122.36124209999998,134.86,19344782.0
314,NonResidential,Non-Refrigerated Warehouse,FEDEX VAN TERMINAL,2,greater duwamish,2001,1.0,1.0,0,123061,Non-Refrigerated Warehouse,Non-Refrigerated Warehouse,123061.0,61.0,47.56077194,-122.32500458,13.33,1912690.0
315,NonResidential,"Distribution Center
",WASHINGTON STATE FERRIES,2,greater duwamish,1963,1.0,1.0,0,59090,"Distribution Center, Office",Distribution Center,40272.0,36.0,47.54865557,-122.3253303,132.56,3037572.0
316,NonResidential,Non-Refrigerated Warehouse,GTE SYLVANIA,2,greater duwamish,1963,1.0,1.0,0,106000,Non-Refrigerated Warehouse,Non-Refrigerated Warehouse,106001.0,74.0,47.5468909,-122.32399620000001,9.47,1358022.0
317,NonResidential,Large Office,1551 EASTLAKE BLDG.,4,lake union,1962,1.0,3.0,42282,100082,"Laboratory, Office, Parking",Office,125779.0,25.0,47.633493,-122.3263524,189.88,16628372.0
318,NonResidential,"Distribution Center
",FRYE DISTRIBUTION CENTER,2,greater duwamish,1960,1.0,1.0,0,119661,Distribution Center,Distribution Center,118733.0,98.0,47.53766891,-122.32414080000001,4.49,624180.0
319,NonResidential,Large Office,1144 EASTLAKE BUILDING,3,lake union,2001,1.0,7.0,44728,94472,Office,Office,82098.0,74.0,47.62973404,-122.32804871,33.76,4842910.0
320,NonResidential,Small- and Mid-Sized Office,701 DEXTER BUILDING,7,magnolia / queen anne,1984,1.0,6.0,33921,61800,"Office, Parking",,,95.0,47.62563138,-122.3428953,21.38,3066228.0
321,NonResidential,Large Office,1100 DEXTER,7,magnolia / queen anne,1996,1.0,5.0,115228,98055,"Office, Parking",Office,105563.0,76.0,47.62912762,-122.3419415,44.54,6388260.0
322,NonResidential,Large Office,1441 LAKE UNION CENTER,4,lake union,2001,1.0,3.0,47656,56041,Office,Office,63199.0,1.0,47.6477973,-122.3392645,421.92,15324777.0
323,NonResidential,Small- and Mid-Sized Office,NORTHGATE EXECUTIVE CENTER B,5,north,1974,1.0,5.0,0,74880,"Office, Parking",Office,71751.0,68.0,47.7007902,-122.3272232,30.87,4428557.0
324,NonResidential,Small- and Mid-Sized Office,NORTHGATE EXECUTIVE CENTER C,5,north,1979,1.0,6.0,0,88774,"Office, Parking",Office,85339.0,52.0,47.70006313,-122.326753,42.23,6057734.0
325,NonResidential,Large Office,NORTHGATE PLAZA,5,north,1983,1.0,5.0,0,122250,"Adult Education, Bank Branch, Office, Parking",Office,91281.0,91.0,47.69917313,-122.32688710000001,41.98,6022054.0
326,NonResidential,Small- and Mid-Sized Office,NORTHGATE OFFICE BUILDING,5,north,1979,1.0,4.0,0,53730,"Office, Parking",Office,53730.0,18.0,47.70057856,-122.3249321,33.77,4843538.0
327,NonResidential,Small- and Mid-Sized Office,DELRIDGE BUILDING,1,delridge,1960,1.0,3.0,0,55593,Office,Office,55593.0,57.0,47.56710229,-122.36416399999999,88.5,4099807.0
328,NonResidential,Large Office,425 PONTIUS (WRIGHT SCHUCHART BUILDING),7,lake union,1982,1.0,4.0,60960,73096,"Office, Parking",Office,72066.0,55.0,47.62278141,-122.33206969999999,32.52,4664399.0
329,NonResidential,Retail Store,COSTCO 4TH AVE S,2,greater duwamish,2005,1.0,1.0,0,158415,Retail Store,Retail Store,158415.0,23.0,47.56538887,-122.3303087,474.59,23364636.0
330,NonResidential,Large Office,1000 DENNY WAY BUILDING,7,lake union,1929,1.0,8.0,0,287819,"Data Center, Office, Other, Restaurant",Office,155985.0,,47.61898067,-122.33644009999999,351.03,49102164.0
331,NonResidential,Other,VIRGINIA MASON - BUCK PAVILLON,3,east,1975,1.0,8.0,0,158738,Urgent Care/Clinic/Other Outpatient,Urgent Care/Clinic/Other Outpatient,158738.0,,47.610416,-122.326568,1359.77,66740380.0
332,NonResidential,Retail Store,FRED MEYER BALLARD,6,ballard,1999,1.0,1.0,0,164437,"Parking, Retail Store, Supermarket/Grocery Store",Retail Store,102653.0,61.0,47.66047823,-122.36763290000002,324.63,18622292.0
333,NonResidential,Large Office,INTERURBAN EXCHANGE II,7,lake union,2009,1.0,5.0,66234,118248,"Office, Other, Parking",Office,118016.0,95.0,47.62410578,-122.33752620000001,41.16,5820965.0
334,NonResidential,Other,ROSEN BUILDING,7,lake union,1928,1.0,3.0,0,55200,"Data Center, Laboratory",Laboratory,54880.0,,47.62346456,-122.3375308,254.16,11566123.0
335,NonResidential,Other,401 TERRY AVE (INSTITUTE FOR SYSTEM BIOLOGY),7,lake union,2003,1.0,4.0,111793,129366,Laboratory,Laboratory,176171.0,,47.62262099,-122.3375121,967.81,40183424.0
336,NonResidential,Large Office,428 WESTLAKE BUILDING,7,lake union,2004,1.0,6.0,52582,86700,"Financial Office, Food Service, Office, Other, Parking",Office,79384.0,74.0,47.62262623,-122.338058,36.71,5266498.0
337,NonResidential,Large Office,CITY PLACE II,7,lake union,2009,1.0,5.0,98700,172371,"Medical Office, Office, Parking",Office,168132.0,96.0,47.62385941,-122.33546448,62.01,7905095.0
338,NonResidential,Non-Refrigerated Warehouse,SHURGARD CORPORATE HEADQUARTERS AND MINI-STORAGE,3,lake union,1914,1.0,5.0,0,127800,Non-Refrigerated Warehouse,Non-Refrigerated Warehouse,127800.0,51.0,47.62531851,-122.3334149,37.62,3060149.0
339,NonResidential,Large Office,FHCRC - ARNOLD BLDG,3,lake union,2002,1.0,5.0,206597,353919,"Office, Parking",Office,372503.0,68.0,47.62726846,-122.33157620000001,626.54,30710500.0
340,NonResidential,Large Office,FHCRC - YALE BLDG,3,lake union,2001,1.0,6.0,95000,131592,"Office, Parking",Office,131592.0,49.0,47.62622137,-122.33143940000001,84.93,11797448.0
342,NonResidential,Mixed Use Property,SEATTLE BIOMEDICAL BUILDING,7,lake union,2003,1.0,5.0,50654,109046,"Office, Other, Parking, Retail Store",Other,72407.0,,47.62137417,-122.3388409,565.65,27119380.0
343,NonResidential,Large Office,WESTLAKE TERRY - EAST BLDG,7,lake union,2006,1.0,4.0,73673,136143,"Fitness Center/Health Club/Gym, Office, Parking, Restaurant",Office,113803.0,95.0,47.62145233,-122.33753204,127.78,7380088.0
344,NonResidential,Large Office,WESTLAKE TERRY WEST BLDG,7,lake union,2006,1.0,6.0,109905,193198,"Bank Branch, Office, Parking",Office,178628.0,94.0,47.62145615,-122.33805847,75.43,8690179.0
345,NonResidential,Mixed Use Property,FRED ROGERS BLDG-SEATTLE OPERA,7,lake union,1954,1.0,3.0,0,67380,"Non-Refrigerated Warehouse, Office, Other, Other - Entertainment/Public Assembly, Parking",Non-Refrigerated Warehouse,35630.0,65.0,47.62026229,-122.33680349999999,66.6,2654804.0
346,NonResidential,Laboratory,Brotman Building D,7,lake union,1963,1.0,4.0,0,102235,,,,,47.62452073,-122.33990438,612.84,25290360.0
347,NonResidential,Mixed Use Property,UW MEDICINE-LK UNION PHASE II & III,7,lake union,2008,1.0,5.0,153684,282813,,,,,47.623959,-122.3405267,798.3,41478700.0
348,NonResidential,Small- and Mid-Sized Office,200 WEST THOMAS BUILDING,7,magnolia / queen anne,1974,1.0,5.0,20826,67236,"Office, Parking",Office,67242.0,81.0,47.62122551,-122.359728,23.12,3316933.0
349,NonResidential,Small- and Mid-Sized Office,NORTH TOWER,7,magnolia / queen anne,1972,1.0,5.0,20416,66762,"Office, Parking",Office,68521.0,71.0,47.62302024,-122.35841040000001,25.75,3693616.0
350,NonResidential,Small- and Mid-Sized Office,SOUTH TOWER,7,magnolia / queen anne,1970,1.0,5.0,20416,66762,"Office, Parking",Office,69940.0,86.0,47.622376,-122.35840400000001,25.06,3594908.0
351,NonResidential,Small- and Mid-Sized Office,QUEEN ANNE PLAZA,7,magnolia / queen anne,1985,1.0,4.0,28800,58195,"Office, Parking",Office,58195.0,78.0,47.62002316,-122.3571354,22.02,3158743.0
352,NonResidential,Small- and Mid-Sized Office,FIRST WEST BUILDING,7,magnolia / queen anne,1971,1.0,5.0,21600,66400,"Office, Parking",Office,71090.0,77.0,47.62011334,-122.3576936,21.84,3132453.0
353,NonResidential,Medical Office,4225 ROOSEVELT BLDG- U OF W MED. CENTER,4,northeast,1988,1.0,4.0,88405,108344,"Medical Office, Parking",Medical Office,108344.0,6.0,47.65821313,-122.3183146,493.09,19236770.0
354,NonResidential,Medical Office,4245 ROOSEVELT - UW MEDICAL CENTER,4,northeast,1994,1.0,4.0,95281,95995,Medical Office,Medical Office,95995.0,16.0,47.65884177,-122.3182756,85.13,9329202.0
355,NonResidential,Self-Storage Facility,TRIAD BALLARD DEVELOPMENT,6,ballard,1946,1.0,2.0,0,111445,,,,,47.66813102,-122.3941507,147.45,5318876.0
356,NonResidential,Non-Refrigerated Warehouse,SHURGARD STORAGE,1,southwest,1997,1.0,4.0,0,98475,Non-Refrigerated Warehouse,Non-Refrigerated Warehouse,98475.0,81.0,47.56885038,-122.37123090000001,21.38,1082531.0
357,NonResidential,Hospital,FHCRC - SEATTLE CANCER CARE ALLIANCE CLINIC,3,lake union,2000,1.0,7.0,150455,159080,Hospital (General Medical & Surgical),Hospital (General Medical & Surgical),215602.0,17.0,47.62652206,-122.32956696,1185.15,46518024.0
358,NonResidential,Small- and Mid-Sized Office,ASIAN COUNSELING and REFERRAL SERVICE BUILDING,2,greater duwamish,2008,1.0,3.0,21410,55188,"Office, Parking",Office,55188.0,76.0,47.57089656,-122.2974118,134.69,4476997.0
359,NonResidential,Retail Store,FRED MEYER,5,north,1995,1.0,2.0,0,244529,"Parking, Retail Store, Supermarket/Grocery Store",Retail Store,70800.0,57.0,47.7240537,-122.29205290000002,291.28,14583160.0
360,NonResidential,Supermarket/Grocery Store,RESTAURANT DEPOT,2,greater duwamish,2008,1.0,1.0,0,63225,Supermarket/Grocery Store,Supermarket/Grocery Store,63225.0,100.0,47.56886018,-122.3377912,46.15,6619941.0
361,Nonresidential COS,Other,WESTBRIDGE BUILDING - SEATTLE PARKS DEPT,1,delridge,1955,1.0,1.0,0,113780,"Office, Other - Services",Other - Services,91532.0,,47.56561534,-122.35402830000001,122.16,3580091.0
362,NonResidential,Non-Refrigerated Warehouse,Skyline-East Marginal WAREHOUSE,2,greater duwamish,1999,1.0,1.0,0,243044,Non-Refrigerated Warehouse,Non-Refrigerated Warehouse,280356.0,99.0,47.56376232,-122.3423613,93.67,2512319.0
363,NonResidential,Other,THE PARKVIEW BUILDING,6,lake union,2001,1.0,3.0,156312,123940,"Office, Parking, Retail Store",Parking,156312.0,,47.64929601,-122.350499,85.03,12196872.0
364,NonResidential,Small- and Mid-Sized Office,KCPQ,7,magnolia / queen anne,1952,1.0,3.0,12998,53464,,,,,47.63548436,-122.3409248,63.51,9109967.0
365,NonResidential,Retail Store,LOWES,5,northwest,1997,1.0,1.0,0,131387,Retail Store,Retail Store,107931.0,82.0,47.72050908,-122.34739280000001,87.03,7261732.0
366,NonResidential,Non-Refrigerated Warehouse,STORAGE USA SELF STORAGE,5,northwest,1999,1.0,3.0,0,94400,Non-Refrigerated Warehouse,Non-Refrigerated Warehouse,67155.0,34.0,47.72385371,-122.3407784,14.65,884314.0
367,NonResidential,Other,AURORA SHOPPING CENTER,5,northwest,1964,1.0,1.0,0,111900,"Parking, Strip Mall",Strip Mall,124231.0,,47.72548938,-122.3469881,220.38,11564788.0
368,NonResidential,Other,SAM'S CLUB,5,northwest,1984,1.0,1.0,0,144776,Wholesale Club/Supercenter,Wholesale Club/Supercenter,144776.0,57.0,47.72842333,-122.3444389,230.45,13146645.0
369,NonResidential,Retail Store,AURORA ACRES BUILDING (RETAIL PLAZA),5,northwest,1967,1.0,1.0,0,114000,"Retail Store, Supermarket/Grocery Store",Retail Store,57805.0,96.0,47.72545915,-122.34255290000002,325.3,11511880.0
370,NonResidential,Supermarket/Grocery Store,ALBERTSON'S STORE 410,5,northwest,1997,1.0,1.0,0,50083,"Parking, Supermarket/Grocery Store",Supermarket/Grocery Store,50065.0,78.0,47.72465497,-122.34491274,154.6,8611054.0
371,NonResidential,Large Office,THE BURKE BLDG,6,lake union,1988,1.0,3.0,0,124071,Office,Office,96504.0,77.0,47.65060893,-122.3530578,33.02,4734631.0
372,NonResidential,Small- and Mid-Sized Office,THE EVANSTON BUILDING,6,lake union,2000,1.0,4.0,36528,53472,Office,Office,90000.0,82.0,47.64970141,-122.3517949,28.21,4045980.0
373,NonResidential,Small- and Mid-Sized Office,THE  WATERSIDE BUILDING,6,lake union,2001,1.0,3.0,33709,62332,"Office, Parking",Office,62232.0,69.0,47.6487041,-122.3505842,38.15,5471735.0
374,NonResidential,Large Office,ADOBE BUILDING-801-N 34 ST.,6,lake union,1999,1.0,3.0,114829,166128,,,,94.0,47.6481342,-122.3484595,100.96,12229610.0
375,NonResidential,Large Office,FREMONT LAKE UNION CENTER - PLAZA BLDG,6,lake union,1999,1.0,4.0,103032,140302,"Office, Parking",Office,138995.0,76.0,47.64884638,-122.348972,97.97,10328702.0
377,NonResidential,Large Office,PLAZA BUILDING - SEATTLE DESIGN CENTER,2,greater duwamish,1982,1.0,5.0,121375,268920,"Office, Parking",Office,243018.0,95.0,47.55172357,-122.32697144,54.65,7838600.0
378,NonResidential,Non-Refrigerated Warehouse,NORTHWEST CORPORATE PARK DISTRIBUTION WAREHOUSE,2,greater duwamish,1967,1.0,2.0,0,90000,"Non-Refrigerated Warehouse, Office",Non-Refrigerated Warehouse,70000.0,89.0,47.54988981,-122.3286358,15.25,1272814.0
379,NonResidential,Other,OREGON TILE AND MARBLE,2,greater duwamish,1966,1.0,1.0,0,50200,,,,,47.55030549,-122.3260997,27.8,989975.0
380,NonResidential,Small- and Mid-Sized Office,BALLARD BUILDING,6,ballard,1925,1.0,6.0,6200,87833,"Multifamily Housing, Non-Refrigerated Warehouse, Office, Parking, Retail Store",Office,53993.0,,47.66897964,-122.38531494,118.86,4767227.0
381,NonResidential,Non-Refrigerated Warehouse,MAGNUM SELF STORAGE,6,ballard,1941,1.0,2.0,0,63240,Non-Refrigerated Warehouse,Non-Refrigerated Warehouse,63240.0,100.0,47.66746426,-122.38565359999998,5.54,183521.0
382,NonResidential,Other,BALLARD BLOCKS,6,ballard,2008,1.0,5.0,182454,140415,"Parking, Retail Store",Parking,182454.0,,47.66256332,-122.37516785,406.2,16917964.0
383,NonResidential,"Self-Storage Facility
",PUBLIC STORAGE MINI-STORAGE,7,magnolia / queen anne,1988,1.0,4.0,23400,106893,"Parking, Self-Storage Facility",Self-Storage Facility,130293.0,,47.64716297,-122.37579140000001,3.52,505559.0
384,NonResidential,Non-Refrigerated Warehouse,BOLT MODERN STORAGE QA,7,magnolia / queen anne,1997,1.0,4.0,0,106041,Non-Refrigerated Warehouse,Non-Refrigerated Warehouse,106041.0,93.0,47.65563392,-122.3747028,23.84,1118392.0
385,NonResidential,"Self-Storage Facility
",MAGNOLIA SELF STORAGE,7,magnolia / queen anne,1956,1.0,3.0,0,94470,Self-Storage Facility,Self-Storage Facility,94470.0,,47.63631236,-122.37547020000001,29.92,922041.0
386,NonResidential,Large Office,5TH & JACKSON BUILDING,2,downtown,2002,1.0,10.0,38186,143508,"Office, Other, Parking",Office,153364.0,86.0,47.59964099,-122.32794550000001,56.26,8070420.0
387,NonResidential,Retail Store,UNIVERSITY CENTER,4,northeast,1987,1.0,2.0,0,69492,"Other, Retail Store",Retail Store,69800.0,100.0,47.66172585,-122.31796070000001,2.85,408513.0
388,NonResidential,Non-Refrigerated Warehouse,NWCP BLDG K,2,greater duwamish,1966,1.0,1.0,0,22780,Non-Refrigerated Warehouse,Non-Refrigerated Warehouse,22780.0,30.0,47.54728272,-122.325775,2.98,427697.0
389,NonResidential,"Distribution Center
",SEATTLE DISTRIBUTION CENTER BLDG 1,2,greater duwamish,1967,1.0,1.0,0,124472,"Distribution Center, Parking",Distribution Center,124423.0,92.0,47.54218643,-122.32903600000002,97.01,2457017.0
390,NonResidential,"Distribution Center
",SEATTLE DISTRIBUTION CENTER BLDG 2,2,greater duwamish,1967,1.0,1.0,0,50065,"Distribution Center, Parking",Distribution Center,49918.0,71.0,47.54218643,-122.32903600000002,39.35,1465535.0
391,NonResidential,"Distribution Center
",GLACIER NORTHWEST,2,greater duwamish,1969,1.0,1.0,0,57540,Distribution Center,Distribution Center,57540.0,29.0,47.54621444,-122.334819,30.1,1878979.0
392,NonResidential,Non-Refrigerated Warehouse,NW CORPORATE PARK,2,greater duwamish,1966,1.0,1.0,0,85400,Non-Refrigerated Warehouse,Non-Refrigerated Warehouse,85400.0,47.0,47.54851596,-122.32767709999999,11.11,1593187.0
393,NonResidential,Non-Refrigerated Warehouse,NW CORPORATE PARK,2,greater duwamish,1966,1.0,1.0,0,55700,Non-Refrigerated Warehouse,Non-Refrigerated Warehouse,55700.0,62.0,47.54851596,-122.32767709999999,3.72,533078.0
394,NonResidential,Small- and Mid-Sized Office,RESOURCE CENTER,2,greater duwamish,1964,1.0,1.0,0,53250,"Office, Parking",Office,52759.0,92.0,47.54966924,-122.3276807,64.75,2196718.0
395,NonResidential,Small- and Mid-Sized Office,400 MERCER STREET OFFICE BUILDING,7,magnolia / queen anne,1987,1.0,6.0,28427,50245,,,,95.0,47.62483876,-122.34852620000001,42.86,2713722.0
396,NonResidential,Non-Refrigerated Warehouse,PUBLIC STORAGE,5,northwest,1986,1.0,3.0,0,64660,Non-Refrigerated Warehouse,Non-Refrigerated Warehouse,64660.0,88.0,47.71285067,-122.3442059,6.58,340270.0
397,NonResidential,Mixed Use Property,RICHMARK PRINTING,3,east,1927,1.0,2.0,19928,55916,"Office, Other, Parking",Other,28442.0,,47.6156585,-122.31744950000001,35.72,3635600.0
398,NonResidential,"Distribution Center
",SOUTH SEATTLE DISTRIBUTION CENTER- 3800,2,greater duwamish,1968,1.0,1.0,0,161678,Distribution Center,Distribution Center,174227.0,27.0,47.57009819,-122.33338799999999,194.3,9245102.0
399,NonResidential,"Distribution Center
",SOUTH SEATTLE DISTRIBUTION CENTER- 3844,2,greater duwamish,1949,1.0,1.0,0,101101,Distribution Center,Distribution Center,101101.0,1.0,47.56875906,-122.33308999999998,166.45,23612824.0
400,NonResidential,"Distribution Center
",SOUTH SEATTLE DISTRIBUTION CENTER- 3601,2,greater duwamish,1980,1.0,1.0,0,52613,Distribution Center,Distribution Center,52613.0,77.0,47.57021636,-122.33238600000001,29.02,992738.0
401,NonResidential,Other,CASCADE DESIGNS INC,2,greater duwamish,1940,1.0,1.0,0,56608,"Office, Other",Other,45340.0,,47.56784433,-122.33365819999999,73.9,5234454.0
402,NonResidential,Refrigerated Warehouse,SEATTLE PRODUCE TERMINAL (CHARLIE'S),2,greater duwamish,1953,1.0,1.0,0,104099,"Office, Parking, Refrigerated Warehouse",Refrigerated Warehouse,100000.0,,47.56652481,-122.3327126,145.54,17714332.0
403,NonResidential,Supermarket/Grocery Store,SAFEWAY STORE # 1845 (FORMERLY 3389),5,northwest,2003,1.0,1.0,7450,40667,"Parking, Supermarket/Grocery Store",Supermarket/Grocery Store,51722.0,48.0,47.69270472,-122.35506229999999,377.36,13924967.0
404,NonResidential,Supermarket/Grocery Store,Q.F.C. & DOLLAR STORE,5,north,1980,1.0,1.0,0,58480,Supermarket/Grocery Store,Supermarket/Grocery Store,44431.0,39.0,47.73314624,-122.31051940000002,328.17,11639369.0
405,NonResidential,Large Office,YALE & THOMAS,7,lake union,1981,1.0,4.0,0,186971,"Office, Parking",Office,186977.0,86.0,47.6212428,-122.3297865,226.92,12662456.0
406,NonResidential,Non-Refrigerated Warehouse,EVERGREEN WHLSLE FLORIST (DEMOLISHED),7,lake union,1955,1.0,1.0,0,66968,,,,1.0,47.62145274,-122.33112849999999,11.09,1575581.0
407,NonResidential,Large Office,ALLEY 24 EAST,7,lake union,2005,1.0,6.0,124800,211900,"Office, Parking, Retail Store",Office,193420.0,94.0,47.61985503,-122.33048111,67.61,9697866.0
408,NonResidential,Retail Store,REI - SEATTLE,7,lake union,1996,1.0,4.0,159994,110729,Retail Store,Retail Store,98863.0,40.0,47.62035862,-122.3297037,184.4,10020111.0
409,NonResidential,Small- and Mid-Sized Office,1130 BUILDING,3,central,1914,1.0,2.0,0,62220,"Office, Other - Services, Parking",Office,60676.0,33.0,47.59283131,-122.30874909999999,38.08,5375518.0
410,NonResidential,Small- and Mid-Sized Office,900 POPLAR BUILDING,3,greater duwamish,1970,1.0,1.0,0,65430,"Office, Other",Office,60732.0,92.0,47.59364401,-122.3109277,76.67,2855545.0
411,NonResidential,Large Office,NORTHCUT LANDING,4,northeast,2006,1.0,3.0,42440,59850,"Office, Parking",Office,83715.0,28.0,47.66514721,-122.30180940000001,47.78,5917000.0
412,NonResidential,Other,CENTURYLINK: EAST CO,3,central,1926,1.0,3.0,0,80004,Other,Other,74864.0,,47.61448142,-122.3098028,99.45,14265421.0
413,NonResidential,Non-Refrigerated Warehouse,K2 and Iron Mountain (Seattle 4),2,greater duwamish,1991,1.0,2.0,0,323916,"Non-Refrigerated Warehouse, Office",Non-Refrigerated Warehouse,263528.0,81.0,47.56415346,-122.3275518,364.9,11289052.0
414,NonResidential,Large Office,PACIFIC TOWER,2,greater duwamish,1932,1.0,14.0,0,304052,"Medical Office, Office, Parking",Office,230140.0,86.0,47.59282532,-122.3168305,184.83,15843743.0
415,NonResidential,Small- and Mid-Sized Office,NORTHWEST BLDG,4,lake union,1978,1.0,4.0,31210,54175,"Data Center, Office, Parking",Office,50235.0,77.0,47.64039142,-122.326242,34.19,4904803.0
416,NonResidential,"Distribution Center
",NORTHWEST CENTER INDUSTRIES,1,greater duwamish,1989,1.0,2.0,0,98024,"Distribution Center, Office",Distribution Center,63896.0,77.0,47.53692799,-122.3326807,70.96,3228330.0
417,NonResidential,Mixed Use Property,BRIGHT HORIZONS,7,lake union,1928,1.0,1.0,15000,50000,"Office, Other, Parking",Office,20000.0,,47.62386402,-122.33080790000001,48.6,2361088.0
418,NonResidential,Large Office,EASTLAKE & ROY - YALE CAMPUS,7,lake union,1990,1.0,5.0,66620,77953,"Office, Parking",Office,78521.0,56.0,47.62492806,-122.32978119999999,37.82,5424718.0
419,NonResidential,Retail Store,MACY'S - NORTHGATE,5,north,1950,1.0,2.0,0,302812,Retail Store,Retail Store,302812.0,97.0,47.70592963,-122.3257763,115.76,7133767.0
420,NonResidential,Small- and Mid-Sized Office,NORTHWAY SQUARE EAST,5,northwest,1974,1.0,5.0,0,86400,Office,Office,78200.0,57.0,47.70744968,-122.3317136,259.33,8404370.0
421,NonResidential,Other,NORTHGATE VILLAGE RETAIL,5,north,1969,1.0,2.0,0,98539,Strip Mall,Strip Mall,98539.0,,47.70940170000001,-122.32033190000001,47.71,5711553.0
422,NonResidential,Small- and Mid-Sized Office,NORTHWAY WEST BUILDING,5,northwest,1981,1.0,6.0,0,86483,"Office, Parking",Office,86483.0,50.0,47.70732866,-122.33277279999999,47.38,6796335.0
423,NonResidential,"Distribution Center
",PACIFIC PLUMBING SUPPLY,1,delridge,1976,1.0,1.0,0,51600,"Distribution Center, Office",Distribution Center,34400.0,82.0,47.53914935,-122.341353,21.57,1012341.0
424,NonResidential,Non-Refrigerated Warehouse,JONES STEVEDORING,1,delridge,1968,1.0,1.0,0,140520,Non-Refrigerated Warehouse,Non-Refrigerated Warehouse,140520.0,73.0,47.53627727,-122.33751310000001,42.41,1738376.0
425,NonResidential,Large Office,PEMCO,7,magnolia / queen anne,1986,1.0,5.0,62380,91649,"Office, Parking",Office,91645.0,,47.63108155,-122.34191090000002,47.84,1886382.0
426,NonResidential,Other,MERIDIAN MEDICAL PAVILION,5,northwest,2005,1.0,3.0,91935,69854,"Medical Office, Parking",Parking,91935.0,,47.7088653,-122.3346333,48.94,7020517.0
427,NonResidential,Medical Office,MCMURRAY MEDICAL BUILDING,5,northwest,2005,1.0,3.0,0,63909,"Medical Office, Retail Store",Medical Office,60670.0,,47.71269972,-122.33763429999999,30.66,4397572.0
428,NonResidential,Non-Refrigerated Warehouse,IRON MOUNTAIN,5,northwest,1948,1.0,2.0,0,53472,"Non-Refrigerated Warehouse, Office",Non-Refrigerated Warehouse,46846.0,,47.69818968,-122.34289799999999,35.86,1051944.0
429,NonResidential,Non-Refrigerated Warehouse,EMERSON POWER PRODUCTS,1,greater duwamish,1980,1.0,1.0,0,50417,Non-Refrigerated Warehouse,Non-Refrigerated Warehouse,50417.0,59.0,47.52696432,-122.3293949,40.65,1060850.0
430,NonResidential,Medical Office,NORTHWEST OUTPATIENT MEDICAL CENTER,5,northwest,1961,1.0,3.0,0,133298,Medical Office,Medical Office,133298.0,34.0,47.70458235,-122.3325262,292.92,14886199.0
431,NonResidential,Retail Store,J C PENNY CO BUILDING - NORTHGATE MALL,5,north,1965,1.0,2.0,0,168619,Retail Store,Retail Store,173106.0,76.0,47.70855501,-122.32376419,88.66,6576563.0
432,NonResidential,Mixed Use Property,1616 EASTLAKE BUILDING,4,lake union,2002,1.0,5.0,113318,138509,"Laboratory, Office, Parking",Parking,113318.0,,47.634439799999996,-122.32468229999999,1039.99,43048528.0
433,NonResidential,Large Office,MERCER/YALE BLDG - 1260 MERCER,7,lake union,2000,1.0,4.0,71385,89392,"Office, Parking",Office,103970.0,88.0,47.62464437,-122.33126979999999,48.74,6991476.0
434,NonResidential,Non-Refrigerated Warehouse,4727 BUILDING,2,greater duwamish,1969,1.0,2.0,0,104786,Non-Refrigerated Warehouse,Non-Refrigerated Warehouse,104786.0,92.0,47.56097562,-122.33491640000001,17.94,960753.0
435,NonResidential,Other,CENTURYLINK: SEATTLE 1ST AVE GARAGE,2,greater duwamish,2000,1.0,1.0,0,53040,Other,Other,51427.0,,47.55795279,-122.3347992,51.67,1825347.0
436,NonResidential,Other,MCKINSTRY SHOP,2,greater duwamish,1973,1.0,1.0,0,110689,Other,Other,110689.0,,47.5589184,-122.3315553,92.7,2227640.0
437,NonResidential,Small- and Mid-Sized Office,McKinstry 220 South Dawson,2,greater duwamish,1948,1.0,1.0,0,53620,Office,Office,53620.0,88.0,47.556121000000005,-122.33163400000001,21.6,1998767.0
438,NonResidential,Small- and Mid-Sized Office,IRIDIO - (OLD WESTERN CARTAGE),2,greater duwamish,1938,1.0,1.0,0,50008,Office,Office,50008.0,57.0,47.55604648,-122.3332733,66.32,3373582.0
439,NonResidential,Large Office,635 ELLIOTT - SOUTH BUILDING,7,magnolia / queen anne,2009,1.0,4.0,100176,191000,"Office, Parking",Office,194674.0,99.0,47.62516702,-122.36717659999998,42.41,6083307.0
440,NonResidential,Non-Refrigerated Warehouse,CASCADE DESIGNS INC (Baja),2,greater duwamish,1957,1.0,1.0,0,50832,"Non-Refrigerated Warehouse, Office",Non-Refrigerated Warehouse,43920.0,52.0,47.56408325,-122.33242820000001,105.32,2666634.0
441,NonResidential,Refrigerated Warehouse,Uwajimaya (Seattle 5),2,greater duwamish,1971,1.0,1.0,0,76354,Refrigerated Warehouse,Refrigerated Warehouse,63157.0,63.0,47.56156057,-122.3275348,21.92,3022275.0
442,NonResidential,Non-Refrigerated Warehouse,MERLINO FOODS,2,greater duwamish,1956,1.0,1.0,0,98480,Non-Refrigerated Warehouse,Non-Refrigerated Warehouse,98480.0,67.0,47.56597185,-122.3288821,41.15,2792236.0
443,NonResidential,Mixed Use Property,WALLINGFORD CENTER,4,lake union,1904,1.0,2.0,0,53002,"Multifamily Housing, Parking, Restaurant, Retail Store",Retail Store,31602.0,82.0,47.66088623,-122.3356731,49.68,3129811.0
444,NonResidential,Mixed Use Property,GILEAD SCIENCES BLDG. (ALEXANDRIA R.E.)  ECON. UNI,4,lake union,2008,1.0,3.0,51218,124700,"Laboratory, Office, Parking",Office,66737.0,,47.63453293,-122.32646179,565.79,20063722.0
445,NonResidential,Other,ZYMOGENETICS,3,lake union,1920,1.0,3.0,63782,106003,"Other, Parking",Other,106003.0,,47.63103515,-122.32752279999998,485.76,21187538.0
446,NonResidential,Large Office,AGC BUILDING & BANK,7,lake union,1971,1.0,11.0,0,124721,"Food Service, Office, Parking, Restaurant",Office,107594.0,56.0,47.62998519,-122.33963729999999,360.04,13951571.0
447,NonResidential,Small- and Mid-Sized Office,LAKE UNION BUILDING & YACHT HARBOR MARINA OFFICE BUILDING,7,lake union,1970,1.0,7.0,0,94002,"Office, Parking",Office,93905.0,62.0,47.6343814,-122.3396625,47.64,6832991.0
448,NonResidential,Non-Refrigerated Warehouse,NWCP BLDG U,2,greater duwamish,1974,1.0,1.0,0,93020,Non-Refrigerated Warehouse,Non-Refrigerated Warehouse,93020.0,61.0,47.55487662,-122.3276403,8.55,1226435.0
449,NonResidential,Supermarket/Grocery Store,SAFEWAY 1965,2,southeast,2002,1.0,1.0,0,61053,"Parking, Supermarket/Grocery Store",Supermarket/Grocery Store,54434.0,33.0,47.52100473,-122.26813940000001,321.71,13440924.0
450,NonResidential,Large Office,MERRILL PLACE HAMBACH - SELLER BUILDING,2,downtown,1913,1.0,7.0,0,154159,Office,Office,193154.0,100.0,47.59865952,-122.33460999,28.88,1990444.0
451,NonResidential,Small- and Mid-Sized Office,HERITAGE BUILDING,2,downtown,1904,1.0,5.0,0,78920,Office,Office,65600.0,95.0,47.59894829,-122.3337932,13.8,1992690.0
452,NonResidential,Small- and Mid-Sized Office,F X MCRORY'S BUILDING,2,downtown,1906,1.0,7.0,0,99440,"Office, Retail Store",Office,65088.0,59.0,47.598549600000005,-122.33326229999999,130.62,6863561.0
453,NonResidential,Small- and Mid-Sized Office,WESTLAND BUILDING-DSHS,2,downtown,1907,1.0,6.0,0,73260,Office,Office,63871.0,84.0,47.59854848,-122.3338013,19.12,2742111.0
454,NonResidential,Small- and Mid-Sized Office,GLOBE BUILDING,7,downtown,1900,1.0,4.0,0,75007,"Office, Retail Store",Office,34647.0,88.0,47.59970561,-122.3337848,64.67,2003759.0
455,NonResidential,Small- and Mid-Sized Office,GRAND CENTRAL BUILDING,7,downtown,1900,1.0,4.0,0,84750,"Office, Retail Store",Office,41609.0,95.0,47.60046292,-122.33378710000001,31.89,2392466.0
456,NonResidential,Small- and Mid-Sized Office,INTERURBAN BUILDING (OLD SMITH TOWER ANNEX BUILDING),7,downtown,1900,1.0,6.0,13320,62176,"Office, Restaurant, Retail Store",Office,45799.0,,47.60146407,-122.3324777,23.34,3347567.0
457,NonResidential,Large Office,OCCIDENTAL MALL,7,downtown,1900,1.0,4.0,0,164380,"Office, Retail Store",Office,123607.0,79.0,47.59961488,-122.3324883,119.2,7319546.0
458,NonResidential,Large Office,COURT IN THE SQUARE (Goldsmith & Northcoast),2,downtown,1907,1.0,7.0,0,160580,Office,Office,160580.0,98.0,47.59854889,-122.33197784,124.66,4759256.0
459,NonResidential,Small- and Mid-Sized Office,PREFONTAINE BUILDING,7,downtown,1909,1.0,6.0,0,73470,"Non-Refrigerated Warehouse, Office, Retail Store",Office,47145.0,83.0,47.60147726,-122.3293071,22.5,3226884.0
460,Nonresidential COS,Other,KING STREET STATION-BNRR/AMTRAK,2,downtown,1906,1.0,3.0,0,67755,"Data Center, Office, Other, Other - Entertainment/Public Assembly",Other,33647.0,,47.59842225,-122.32989340000002,12.71,1822830.0
461,NonResidential,Mixed Use Property,ROMAC INDUSTRIES WHSE,2,greater duwamish,1910,1.0,3.0,0,56700,"Distribution Center, Non-Refrigerated Warehouse, Office",Office,26250.0,38.0,47.59264073,-122.3282811,29.57,2314835.0
462,NonResidential,Non-Refrigerated Warehouse,1021-1045 6th Ave. S.,2,greater duwamish,1922,1.0,1.0,0,82852,"Non-Refrigerated Warehouse, Retail Store",Non-Refrigerated Warehouse,58472.0,86.0,47.59343565,-122.32662409999999,70.17,2101376.0
463,NonResidential,Other,PACIFIC GALLERIES ANTIQUE MALL,2,greater duwamish,1953,1.0,2.0,0,76442,"Distribution Center, Office, Other",Other,50500.0,,47.57886723,-122.33130259999999,99.96,3366528.0
464,NonResidential,"Distribution Center
",HULLIN TRANSFER BUILDING,2,greater duwamish,1962,1.0,2.0,0,92792,"Distribution Center, Office",Distribution Center,85343.0,57.0,47.57654546,-122.3305232,67.94,3002991.0
465,NonResidential,Non-Refrigerated Warehouse,OCCIDENTAL WAREHOUSE,2,greater duwamish,1941,1.0,2.0,0,125519,,,,,47.58438465,-122.3328054,142.52,4999863.0
466,NonResidential,Large Office,ZARRETT'S 0FFICE BUILDING - OLD OLYMPIC COLD STG,2,greater duwamish,1900,1.0,4.0,25800,103200,Office,Office,104869.0,85.0,47.58360662,-122.3337054,27.77,3983784.0
467,NonResidential,Non-Refrigerated Warehouse,UNITED WAREHOUSE CO,2,greater duwamish,1954,1.0,1.0,0,78814,Non-Refrigerated Warehouse,Non-Refrigerated Warehouse,78814.0,87.0,47.58726986,-122.33265790000002,14.5,620483.0
468,NonResidential,Small- and Mid-Sized Office,ROEBLING BLDG,2,greater duwamish,1904,1.0,4.0,0,58970,"Multifamily Housing, Non-Refrigerated Warehouse, Office, Parking",Office,39870.0,,47.59481812,-122.33364868,41.22,1723642.0
469,NonResidential,"Distribution Center
",PALMER BLDG,2,greater duwamish,1910,1.0,6.0,10800,64800,"Distribution Center, Office, Parking",Distribution Center,51040.0,29.0,47.59399214,-122.33374909999999,14.66,2103276.0
470,NonResidential,"Distribution Center
",1016 1ST AVE BLDG,2,greater duwamish,1907,1.0,4.0,0,56270,"Distribution Center, Non-Refrigerated Warehouse, Office, Retail Store",Distribution Center,39884.0,,47.59363891,-122.3336868,7.25,1040593.0
471,NonResidential,Small- and Mid-Sized Office,THE REEDO BUILDING,2,downtown,1904,1.0,4.0,0,66842,"Office, Retail Store",Office,43122.0,34.0,47.59699249,-122.33368683,75.2,4618360.0
472,NonResidential,Small- and Mid-Sized Office,PROVIDENT BUILDING,2,downtown,1909,1.0,6.0,10800,64488,"Office, Parking",Office,65217.0,78.0,47.59630585,-122.33368683,20.91,2996502.0
473,NonResidential,Large Office,83 KING STREET,2,downtown,1904,1.0,7.0,0,184322,Office,Office,184322.0,75.0,47.59767354,-122.33473970000001,71.93,10317852.0
474,NonResidential,Large Office,505 FIRST AVENUE BUILDING,2,downtown,2009,1.0,7.0,0,287853,"Office, Retail Store",Office,273812.0,33.0,47.59802246,-122.33484650000001,202.49,28433056.0
475,NonResidential,Small- and Mid-Sized Office,1201 BUILDING,2,greater duwamish,1914,1.0,2.0,0,64512,Office,Office,63000.0,49.0,47.59161446,-122.3351876,182.58,6155789.0
476,NonResidential,Mixed Use Property,STADIUM INNOVATION CENTER,2,greater duwamish,2009,1.0,6.0,111774,174226,"Distribution Center, Office, Other, Other - Recreation, Parking",Parking,111774.0,,47.58927917,-122.33579254,456.6,65225380.0
477,NonResidential,Non-Refrigerated Warehouse,OUTDOOR RESEARCH,2,greater duwamish,1926,1.0,7.0,0,144050,Non-Refrigerated Warehouse,Non-Refrigerated Warehouse,144050.0,17.0,47.58374482,-122.33468899999998,96.17,4329044.0
478,NonResidential,Small- and Mid-Sized Office,GREEN ROOM,2,greater duwamish,1930,1.0,3.0,0,60592,Office,Office,60384.0,19.0,47.58242872,-122.33464550000001,53.56,4993962.0
479,NonResidential,Large Office,STARBUCKS (SODO) CENTER,2,greater duwamish,1912,1.0,6.0,0,1380959,"Non-Refrigerated Warehouse, Office, Retail Store",Office,1000730.0,77.0,47.58133381,-122.3357675,953.12,78272488.0
480,NonResidential,Retail Store,"HOME DEPOT W M#'S 7255, 7260 & 7265",2,greater duwamish,1993,1.0,1.0,0,107930,Retail Store,Retail Store,107704.0,58.0,47.57834803,-122.33600600000001,92.68,7015692.0
481,NonResidential,Non-Refrigerated Warehouse,BUFFALO SANITARY WIPERS CO,2,greater duwamish,1926,1.0,1.0,0,99084,Non-Refrigerated Warehouse,Non-Refrigerated Warehouse,99084.0,64.0,47.57109832,-122.3355118,45.6,1976920.0
482,NonResidential,"Distribution Center
",FERGUSON,1,delridge,1953,1.0,1.0,0,72719,Distribution Center,Distribution Center,72719.0,31.0,47.56679281,-122.3523106,38.62,2434208.0
483,NonResidential,Small- and Mid-Sized Office,IMMIGRATION SERVICE BUILDING,2,greater duwamish,1930,1.0,4.0,0,76624,Office,Office,76624.0,91.0,47.59511688,-122.32708570000001,28.78,2660396.0
484,NonResidential,Small- and Mid-Sized Office,45TH STREET PLAZA - OFFICE BUILDING AND PARKING GA,4,northeast,2001,1.0,6.0,36583,55123,"Office, Other, Parking",Office,53281.0,3.0,47.6615192,-122.31623789999999,53.36,7654264.0
485,NonResidential,Medical Office,BIOMED FAIRVIEW RESEARCH CENTER,7,lake union,2008,1.0,5.0,37287,58901,"Medical Office, Other, Parking",Medical Office,89131.0,24.0,47.62395105,-122.33391200000001,288.43,13253979.0
486,NonResidential,Large Office,WEST SEATTLE CORPORATE CENTER,1,delridge,1991,1.0,5.0,16221,121885,Office,Office,116251.0,45.0,47.5679286,-122.3641365,54.11,7761927.0
487,NonResidential,Retail Store,MULTI-TENANT WAREHOUSE,2,greater duwamish,1973,1.0,1.0,0,56572,Retail Store,Retail Store,56576.0,70.0,47.5666089,-122.3234388,60.98,2184912.0
488,Multifamily MR (5-9),Mid-Rise Multifamily,TASHIRO-KAPLAN BUILDING CONDO/MIXED USE,7,downtown,2002,1.0,6.0,11210,106740,Multifamily Housing,Multifamily Housing,117950.0,65.0,47.60116757,-122.32982279999999,23.56,2992693.0
489,NonResidential,Medical Office,1221 MADISON STREET (FORMER ARNOLD MED. PAVILLON),3,east,2004,1.0,0.0,0,225982,Medical Office,Medical Office,200184.0,61.0,47.60967963,-122.32310520000001,604.45,18558162.0
490,NonResidential,Mixed Use Property,2200 WESTLAKE,7,downtown,2006,1.0,0.0,0,516407,"Financial Office, Hotel, Multifamily Housing, Other, Parking, Restaurant, Supermarket/Grocery Store",Parking,385196.0,19.0,47.617939,-122.33738708,1222.69,48981052.0
491,NonResidential,Large Office,505 5th Ave S,2,downtown,2000,1.0,11.0,0,312512,"Data Center, Office, Restaurant",Office,303312.0,,47.59823576,-122.3277466,192.23,26313108.0
492,NonResidential,Large Office,RUSSELL INVESTMENTS CENTER,7,downtown,2005,1.0,42.0,297457,1295457,"Data Center, Financial Office, Office, Parking, Restaurant",Office,914832.0,96.0,47.60761629,-122.338131,500.93,58041572.0
493,NonResidential,Small- and Mid-Sized Office,1505 5TH AVE,7,downtown,1926,1.0,6.0,0,97720,"Data Center, Office, Retail Store",Office,51585.0,,47.61077374,-122.33577311,18.24,2616226.0
494,NonResidential,Medical Office,NORDSTROM ELMER J MEDICAL TOWER CONDOMINIUM,3,east,1985,1.0,10.0,206580,215923,Medical Office,Medical Office,197408.0,48.0,47.61009216,-122.32214355,235.69,17871658.0
495,NonResidential,Medical Office,JEFFERSON TOWER,3,central,1987,1.0,7.0,0,94500,Medical Office,Medical Office,94500.0,54.0,47.60648346,-122.31105804,41.9,6010407.0
496,NonResidential,Retail Store,HOME DEPOT,1,delridge,2005,1.0,1.0,0,94713,Retail Store,Retail Store,109758.0,79.0,47.53641069,-122.36381019999999,84.18,5230553.0
497,NonResidential,Medical Office,7TH & MADISON OFFICE BLDG. -(THE POLYCLINIC),7,east,2008,1.0,9.0,101342,201560,"Medical Office, Parking",Medical Office,201365.0,61.0,47.60700323,-122.32910715,123.18,14224039.0
499,NonResidential,Medical Office,CABRINI MEDICAL TOWER,3,east,1973,1.0,19.0,156407,163504,"Medical Office, Parking",Medical Office,170727.0,53.0,47.60861082,-122.32525430000001,333.3,14830411.0
500,NonResidential,Large Office,COLMAN BUILDING,7,downtown,1900,1.0,6.0,0,205521,"Office, Retail Store",Office,114919.0,93.0,47.60349153,-122.33557590000001,282.72,8371368.0
501,NonResidential,Small- and Mid-Sized Office,MUTUAL LIFE BUILDING,7,downtown,1900,1.0,6.0,0,56700,"Office, Retail Store",Office,46000.0,45.0,47.60197315,-122.33457220000001,23.95,3436032.0
502,NonResidential,Small- and Mid-Sized Office,RDA BUILDING,2,greater duwamish,1925,1.0,4.0,0,72000,Office,Office,72000.0,93.0,47.59553065,-122.32469569999999,21.04,2383075.0
503,NonResidential,Large Office,OFFICE BUILDING,7,magnolia / queen anne,2000,1.0,4.0,94892,96254,"Office, Parking",Office,103000.0,93.0,47.63380792,-122.34079640000002,35.09,5032796.0
504,NonResidential,Other,ALLSTAR FITNESS,1,delridge,2001,1.0,3.0,11527,57236,"Other - Recreation, Parking, Swimming Pool",Other - Recreation,50000.0,,47.56800769,-122.3676399,176.59,6171270.0
505,NonResidential,Other,RAINIER SQUARE PLAZA,2,southeast,1994,1.0,1.0,0,102133,"Parking, Strip Mall",Strip Mall,107427.0,,47.56922192,-122.289826,546.2,21069722.0
506,Multifamily HR (10+),High-Rise Multifamily,LEGACY CENTRE & ARBOR PLACE CONDO,7,downtown,1989,1.0,26.0,81679,276497,"Medical Office, Multifamily Housing, Office, Other, Parking",Multifamily Housing,198911.0,84.0,47.61543274,-122.34861755,59.29,8504904.0
507,NonResidential,Large Office,818 STEWART,7,downtown,2008,1.0,14.0,124506,237540,"Office, Other, Parking",Office,234864.0,81.0,47.6156434,-122.33504429999999,129.02,17812788.0
508,Multifamily MR (5-9),Mid-Rise Multifamily,INTERNATIONAL DISTRICT VILLAGE SQUARE 2,2,downtown,2002,1.0,5.0,32295,195993,"Library, Multifamily Housing, Office, Other - Entertainment/Public Assembly, Parking, Restaurant",Multifamily Housing,80298.0,,47.59626038,-122.32282830000001,191.97,5253241.0
509,NonResidential,Other,MARKETPLACE AT QUEEN ANNE CONDOMINIUM,7,magnolia / queen anne,1994,1.0,2.0,0,140000,Lifestyle Center,Lifestyle Center,81385.0,,47.62508085,-122.35519120000001,293.05,13480326.0
510,NonResidential,Large Office,ONE CONVENTION PLACE,7,downtown,2001,1.0,23.0,84660,454273,"Office, Parking",Office,357345.0,92.0,47.61144638,-122.33274841,104.51,14991744.0
511,Multifamily HR (10+),High-Rise Multifamily,OLYMPIC TOWER CONDOMINIUM,7,downtown,1929,1.0,13.0,11000,88470,"Multifamily Housing, Parking, Retail Store",Multifamily Housing,79470.0,43.0,47.61037445,-122.33883667,75.0,4395510.0
512,NonResidential,Other,2323 ELLIOTT,7,downtown,1983,1.0,6.0,197130,78852,"Office, Parking",Parking,197040.0,,47.61222215,-122.3490938,39.41,5653656.0
513,NonResidential,Small- and Mid-Sized Office,QUEEN ANNE SQUARE EAST,7,magnolia / queen anne,1982,1.0,5.0,0,98668,Office,Office,98668.0,89.0,47.62496806,-122.359705,33.36,4785692.0
514,NonResidential,Large Office,RAINIER COMMONS,2,greater duwamish,2007,1.0,1.0,28381,130550,"Multifamily Housing, Non-Refrigerated Warehouse, Office, Parking",Office,80157.0,20.0,47.57473593,-122.3209,75.45,7577723.0
515,NonResidential,Large Office,OCEAN BEAUTY SEAFOODS LLC,7,magnolia / queen anne,1978,1.0,1.0,0,105100,Office,Office,105100.0,1.0,47.65676796,-122.3704009,350.87,21832304.0
516,NonResidential,Retail Store,WHOLE FOODS INTERBAY,7,magnolia / queen anne,2008,1.0,1.0,0,57176,Retail Store,Retail Store,60000.0,32.0,47.63720081,-122.37696329999999,313.53,12037792.0
517,NonResidential,Retail Store,STAPLES BUILDING,7,magnolia / queen anne,1978,1.0,1.0,0,50660,Retail Store,Retail Store,50660.0,53.0,47.632965000000006,-122.376907,46.23,2394843.0
518,NonResidential,Small- and Mid-Sized Office,THE END OF ELLIOTT COMPLEX,7,magnolia / queen anne,1937,1.0,2.0,0,61929,Office,Office,39879.0,55.0,47.63167638,-122.3756112,49.26,2150536.0
519,NonResidential,Large Office,ELLIOTT WEST BLDG 3 - CELL THEREPEUTICS/ADMIN. OFF,7,magnolia / queen anne,2000,1.0,4.0,55000,110111,"Data Center, Office",Office,104667.0,2.0,47.62299616,-122.36449040000001,160.1,22965152.0
520,NonResidential,Large Office,401 ELLIOTT WEST,7,magnolia / queen anne,2000,1.0,4.0,42500,87051,"Data Center, Office, Parking",Office,80668.0,1.0,47.62243869,-122.3637884,179.62,25764716.0
521,NonResidential,Large Office,CLEAR CHANNEL (ACKERLY)- BLDG 1,7,magnolia / queen anne,2000,1.0,5.0,55971,106449,"Data Center, Office, Parking, Restaurant",Office,90417.0,51.0,47.62183942,-122.36301540000001,53.32,7649110.0
522,NonResidential,Large Office,333 ELLIOTT,7,magnolia / queen anne,2008,1.0,5.0,46763,137201,"Data Center, Office, Parking",Office,133451.0,53.0,47.62080128,-122.36172109999998,106.19,15232788.0
523,NonResidential,Large Office,SEATTLE POST INTELLIGENCER,7,magnolia / queen anne,1986,1.0,5.0,78848,129362,"Office, Parking",Office,109978.0,95.0,47.61897016,-122.3594294,137.15,5454482.0
524,NonResidential,Large Office,3131 ELLIOTT BLDG,7,downtown,1986,1.0,7.0,80283,197203,"Office, Other, Parking",Office,181068.0,66.0,47.61734733,-122.3571642,90.15,12931002.0
525,NonResidential,Large Office,PIER 69,7,downtown,1993,1.0,3.0,0,187130,"Non-Refrigerated Warehouse, Office, Other, Other - Recreation, Other - Services, Restaurant",Office,171783.0,78.0,47.61401367,-122.35378265,67.48,9680169.0
526,NonResidential,Large Office,WORLD TRADE CENTER NORTH,7,downtown,2000,1.0,5.0,117867,133177,"Data Center, Office",Office,126218.0,98.0,47.61286627,-122.3501976,120.75,17320768.0
527,NonResidential,Non-Refrigerated Warehouse,SHURGARD SELF STORAGE,7,downtown,1912,1.0,5.0,0,154330,Non-Refrigerated Warehouse,Non-Refrigerated Warehouse,95330.0,79.0,47.6068859,-122.34023090000001,8.72,1250669.0
528,NonResidential,Large Office,51 UNIVERSITY (SCHWABACHER BLDG.),7,downtown,1918,1.0,6.0,14690,93555,"Adult Education, Fitness Center/Health Club/Gym, Office, Other - Restaurant/Bar, Parking, Retail Store",Office,64055.0,75.0,47.60599899,-122.33947754,57.03,5101817.0
529,NonResidential,Large Office,NATIONAL BUILDING,7,downtown,1905,1.0,6.0,0,167860,"Data Center, Office, Retail Store",Office,111019.0,74.0,47.60470353,-122.33739440000001,45.0,6455470.0
530,NonResidential,Large Office,MARITIME BUILDING,7,downtown,1911,1.0,5.0,32160,160800,"Office, Parking",Office,135173.0,95.0,47.60373017,-122.33736709999998,260.94,6669954.0
531,NonResidential,Large Office,POLSON BUILDING,7,downtown,1910,1.0,6.0,0,112560,"Office, Retail Store",Office,80400.0,88.0,47.60232676,-122.336083,66.23,4368113.0
532,NonResidential,Other,WESTERN BUILDING,7,downtown,1910,1.0,6.0,0,86204,"Other, Retail Store",Other,67670.0,,47.60196269,-122.33555116,71.03,3165109.0
533,Nonresidential COS,Non-Refrigerated Warehouse,Airport Way Ctr - Bldg C,2,greater duwamish,1985,1.0,2.0,0,145158,"Non-Refrigerated Warehouse, Office, Other",Non-Refrigerated Warehouse,101633.0,52.0,47.5829049,-122.3228994,145.82,8691444.0
534,NonResidential,Large Office,HOLGATE CENTER,2,greater duwamish,1951,1.0,2.0,0,112896,"Office, Parking",Office,110746.0,71.0,47.58727817,-122.3221979,107.84,9128267.0
535,NonResidential,"Distribution Center
